施設名,住所,設置場所,緯度,経度,利用可能時間
上尾運動公園運動場（体育館）,埼玉県上尾市愛宕３－２８,体育館アリーナ入口１階,35.96787644,139.6033338,
スポーツ総合センター,埼玉県上尾市東町３－１６７９,１階ロビー,35.97158838,139.6083038,
埼玉県立武道館,埼玉県上尾市日の出４－１８７７,武道館事務室,35.97034687,139.6089927,
埼玉県立武道館,埼玉県上尾市日の出４－１８７７,武道館主道場,35.97036048,139.6089927,
埼玉県県民活動総合センター,埼玉県北足立郡伊奈町内宿台６－２６,事務棟１階総合受付内,36.01968431,139.6069828,
彩の森入間公園,埼玉県入間市向陽台２丁目地内,管理センター,35.83727875,139.3984282,
秩父ミューズパーク音楽堂,埼玉県秩父市田村１３７７,事務所内,35.99716932,139.0549714,
加須はなさき公園,埼玉県加須市水深１７２２,管理事務所内救護室（夏季は従業員詰所）,36.10122411,139.6323542,
埼玉県花と緑の振興センター,埼玉県川口市安行１０１５,事務室,35.8485054,139.7562487,
埼玉会館,埼玉県さいたま市浦和区高砂３－１－４,会館管理棟入口警備員室,35.85754731,139.6525266,
埼玉県生活科学センター（彩の国くらしプラザ）,埼玉県川口市上青木３－１２－１８ ＳＫＩＰシティＡ１街区２階,彩の国くらしプラザ事務室カウンター横,35.82772926,139.7197324,
彩の国ビジュアルプラザ,埼玉県川口市上青木３－１２－６３,１階防災センター,35.82739599,139.7208334,
川越公園管理事務所,埼玉県川越市池辺８８０,救護室,35.91235031,139.4505774,
埼玉県自然学習センター,埼玉県北本市荒井５－２００,事務室,36.01220563,139.511191,
環境科学国際センター,埼玉県加須市上種足９１４,展示館受付,36.08510427,139.5603016,
埼玉県立さきたま史跡の博物館,埼玉県行田市埼玉４８３４,本館受付,36.1251594,139.4756755,
久喜菖蒲公園,埼玉県久喜市河原井町７０,公園管理事務所,36.05590492,139.6474054,
熊谷スポーツ文化公園ドーム,埼玉県熊谷市上川上３００,管理事務所,36.16631769,139.4095275,
熊谷スポーツ文化公園ラグビー場,埼玉県熊谷市上川上３００,管理事務所,36.16827477,139.4024158,
熊谷スポーツ文化公園陸上競技場,埼玉県熊谷市上川上３００,管理事務所,36.16398049,139.4109931,
熊谷スポーツ文化公園ドーム,埼玉県熊谷市上川上３００,管理事務所,36.16634352,139.4095348,
埼玉県防災学習センター,埼玉県鴻巣市袋３０,１階受付横,36.0948762,139.466715,
しらこばと公園,埼玉県越谷市小曽川９８５,救護室（夏季:救護室）,35.91379675,139.7491006,
埼玉県県民健康福祉村,埼玉県越谷市北後谷８２,１階事務所,35.88426393,139.7582296,
埼玉県県民健康福祉村,埼玉県越谷市北後谷８２,１階室内プール横事務所,35.88429726,139.7582399,
埼玉県立大学,埼玉県越谷市三野宮８２０,南棟１階メディアギャラリー(洗浄乾燥室付近壁面）,35.92988068,139.7560207,
埼玉県障害者交流センター,埼玉県さいたま市浦和区大原３－１０－１,健康チェックコーナー,35.89447423,139.6495753,
埼玉県障害者交流センター,埼玉県さいたま市浦和区大原３－１０－１,プール,35.89447463,139.649575,
埼玉県障害者交流センター,埼玉県さいたま市浦和区大原３－１０－１,健康チェックコーナー,35.89447525,139.6495753,
地方職員共済組合埼玉診療所,埼玉県さいたま市浦和区高砂３－１４－２１,内科診療室,35.85837748,139.6475676,
埼玉県立近代美術館,埼玉県さいたま市浦和区常盤９－３０－１,１階総合受付,35.86960526,139.6429611,
産業文化センター（大宮ソニックシティ）,埼玉県さいたま市大宮区桜木町１－７－５,１階南口防災センター,35.90529311,139.6198289,
産業文化センター（大宮ソニックシティ）,埼玉県さいたま市大宮区桜木町１－７－５,エントランス,35.90526922,139.6194697,
大宮公園事務所,埼玉県さいたま市大宮区高鼻町４,水泳場,35.9217926,139.6284005,
大宮公園事務所,埼玉県さいたま市大宮区高鼻町４,弓道場,35.92154708,139.6289752,
大宮公園事務所,埼玉県さいたま市大宮区高鼻町４,体育館,35.92079602,139.6277309,
大宮公園事務所,埼玉県さいたま市大宮区高鼻町４,野球場１階,35.91797064,139.6328145,
大宮公園事務所,埼玉県さいたま市大宮区高鼻町４,野球場２階,35.91797064,139.6328133,
大宮第二公園,埼玉県さいたま市大宮区寿能町２－４０５,管理棟,35.91828387,139.6403252,
大宮公園事務所,埼玉県さいたま市大宮区高鼻町４,事務所,35.91639608,139.631926,
大宮公園事務所,埼玉県さいたま市大宮区高鼻町４,双輪場救護室,35.91959161,139.6342657,
秋ヶ瀬公園管理事務所,埼玉県さいたま市桜区道場４－１７,管理事務所,35.84883936,139.6052896,
彩の国さいたま芸術劇場,埼玉県さいたま市中央区上峰３－１５－１,インフォメーションセンター,35.8771855,139.6218848,
埼玉県男女共同参画推進センター（Ｗｉｔｈ　Ｙｏｕさいたま）,埼玉県さいたま市中央区新都心２－２ホテルブリランテ武蔵野３階　,総合受付,35.89063568,139.6330464,
埼玉スタジアム２００２公園,埼玉県さいたま市緑区美園２－１,管理事務所,35.90306766,139.7176351,
埼玉スタジアム２００２公園,埼玉県さいたま市緑区美園２－１,クラブハウス,35.90306766,139.7176351,
埼玉スタジアム２００２公園,埼玉県さいたま市緑区美園２－１,救護室２階　Ａ２０１,35.90306766,139.7176351,
埼玉スタジアム２００２公園,埼玉県さいたま市緑区美園２－１,救護室２階　Ａ２０６,35.90306766,139.7176351,
埼玉スタジアム２００２公園,埼玉県さいたま市緑区美園２－１,救護室２階　Ａ２２０,35.90306766,139.7176351,
けやきひろば,埼玉県さいたま市中央区新都心１０,けやきひろば警備室,35.89328199,139.6310576,
さいたまスーパーアリーナ,埼玉県さいたま市中央区新都心８,アリーナ防災センター,35.89492375,139.6308408,
さいたまスーパーアリーナ,埼玉県さいたま市中央区新都心８,１階S1エントランストイレ横壁,35.8945499,139.6307656,
さいたまスーパーアリーナ,埼玉県さいたま市中央区新都心８,１階Ｓ２エントランス正面柱,35.8945499,139.6307656,
さいたまスーパーアリーナ,埼玉県さいたま市中央区新都心８,W１トイレ横壁,35.8945499,139.6307656,
さいたまスーパーアリーナ,埼玉県さいたま市中央区新都心８,２階Aゲート左側の壁,35.8945499,139.6307656,
さいたまスーパーアリーナ,埼玉県さいたま市中央区新都心８,２階Bゲート右側の壁,35.8945499,139.6307656,
さいたまスーパーアリーナ,埼玉県さいたま市中央区新都心８,２階北西ロッカー横壁,35.8945499,139.6307656,
さいたまスーパーアリーナ,埼玉県さいたま市中央区新都心８,２階MBショップ２０４入口横壁,35.8945499,139.6307656,
さいたまスーパーアリーナ,埼玉県さいたま市中央区新都心８,４階Nゲート正面コンコース壁,35.8945499,139.6307656,
所沢航空記念公園,埼玉県所沢市並木１－１３,事務所ロビー,35.79542039,139.4707232,
戸田公園,埼玉県戸田市戸田公園５－２７,管理事務所１階受付窓口,35.80183991,139.6769668,
羽生水郷公園,埼玉県羽生市三田ケ谷７５１－１,さいたま水族館　出札所,36.17310422,139.5979067,
こども動物自然公園,埼玉県東松山市岩殿５５４,管理事務所,36.00042745,139.3741806,
埼玉県平和資料館,埼玉県東松山市岩殿２４１－１１３,インフォメーションＢ１横,35.9986016,139.3656606,
みさと公園,埼玉県三郷市高州３－３６２,管理事務所,35.78683438,139.8729019,
吉見総合運動公園,埼玉県比企郡吉見町今泉１４１,管理事務所,36.05393946,139.4675858,
和光樹林公園,埼玉県和光市広沢３,管理事務所,35.77661604,139.6025877,
埼玉県総合リハビリテーションセンター,埼玉県上尾市西貝塚１４８－１,Ａ棟１階訓練待合ホール,35.93806179,139.5530801,
埼玉県総合リハビリテーションセンター,埼玉県上尾市西貝塚１４８－１,Ｃ棟１階体育館,35.93806179,139.5530801,
埼玉県立循環器・呼吸器病センター,埼玉県熊谷市板井１６９６,循環器外来待合ホール,36.11114335,139.3049271,
埼玉県立循環器・呼吸器病センター,埼玉県熊谷市板井１６９６,ＣＣＵ病棟内,36.11114335,139.3049271,
埼玉県立循環器・呼吸器病センター,埼玉県熊谷市板井１６９６,Ａ病棟１階入口横,36.11114335,139.3049271,
埼玉県立あさか向陽園　障害者歯科診療所,埼玉県朝霞市青葉台１－１０－６０,正面玄関,35.78991424,139.5913459,
埼玉県立嵐山郷,埼玉県比企郡嵐山町古里１８４８,診療棟待合ホール,36.10671318,139.3007607,
埼玉県立嵐山郷,埼玉県比企郡嵐山町古里１８４８,診療棟歯科受付,36.10672707,139.3007965,
埼玉県立嵐山郷,埼玉県比企郡嵐山町古里１８４８,１寮職員室,36.10671652,139.3007793,
埼玉県立嵐山郷,埼玉県比企郡嵐山町古里１８４８,５寮職員室,36.1067204,139.3007534,
埼玉県立嵐山郷,埼玉県比企郡嵐山町古里１８４８,９寮職員室,36.10671846,139.3007521,
埼玉県立嵐山郷,埼玉県比企郡嵐山町古里１８４８,１３寮職員室,36.10672374,139.3007648,
埼玉県立伊奈学園中学校,埼玉県北足立郡伊奈町学園４－１－１,職員室,36.01348211,139.6128939,
埼玉県立上尾高等学校,埼玉県上尾市浅間台１－６－１,第一校舎１階職員室,35.98417693,139.5762305,
埼玉県立上尾鷹の台高等学校,埼玉県上尾市原市２８００,管理・普通教室棟２階事務室前,35.97132266,139.6319699,
埼玉県立上尾橘高等学校,埼玉県上尾市平方２１８７－１,事務室入口前廊下,35.94722036,139.5487354,
埼玉県立上尾橘高等学校,埼玉県上尾市平方２１８７－１,体育館１階入り口正面,35.94701092,139.5479791,
埼玉県立上尾南高等学校,埼玉県上尾市中新井５８５,職員室２階,35.94687972,139.5854143,
埼玉県立上尾南高等学校,埼玉県上尾市中新井５８５,体育館１階管理室,35.94687972,139.5854143,
埼玉県立朝霞高等学校,埼玉県朝霞市幸町３－１３－６５,体育館管理室,35.78799025,139.5899375,
埼玉県立朝霞高等学校,埼玉県朝霞市幸町３－１３－６５,保健室前廊下,35.7879772,139.5899428,
埼玉県立朝霞西高等学校,埼玉県朝霞市脚折上ノ原２－１７,体育館２階入口前,35.79199646,139.5898346,
埼玉県立いずみ高等学校,埼玉県さいたま市中央区円阿弥７－４－１,事務室前廊下,35.8938914,139.6113928,
埼玉県立伊奈学園総合高等学校,埼玉県北足立郡伊奈町学園４－１－１,保健センター,36.01463618,139.6140443,
埼玉県立伊奈学園総合高等学校,埼玉県北足立郡伊奈町学園４－１－１,大体育館入口,36.01470558,139.6126817,
埼玉県立伊奈学園総合高等学校,埼玉県北足立郡伊奈町学園４－１－１,グラウンド体育倉庫,36.01470558,139.6126817,
埼玉県立伊奈学園総合高等学校,埼玉県北足立郡伊奈町学園４－１－１,事務局前玄関前,36.01461868,139.6140549,
埼玉県立豊岡高等学校,埼玉県入間市豊岡１－１５－１,体育館入口,35.83800678,139.390455,
埼玉県立入間向陽高等学校,埼玉県入間市向陽台１－１－１,保健室（１階）前廊下,35.8380597,139.3957593,
埼玉県立岩槻高等学校,埼玉県さいたま市岩槻区城南１－３－３８,職員玄関,35.94250396,139.7037785,
埼玉県立岩槻商業高等学校,埼玉県さいたま市岩槻区太田１－４－１,事務室隣（職員玄関）,35.95069058,139.7056258,
埼玉県立岩槻北陵高等学校,埼玉県さいたま市岩槻区慈恩寺１１７－２,事務室前（２階職員玄関前）,35.97767081,139.7136904,
埼玉県立浦和高等学校,埼玉県さいたま市浦和区領家５－３－３,管理棟１Ｆ玄関口,35.87813731,139.6515486,
埼玉県立浦和北高等学校,埼玉県さいたま市桜区五関５９５,体育館１階教官室,35.86685955,139.5947253,
埼玉県立浦和工業高等学校,埼玉県さいたま市桜区西堀５－１－１,管理棟１階,35.85378715,139.6262946,
埼玉県立浦和商業高等学校,埼玉県さいたま市南区白幡２－１９－３９,事務室１階受付カウンター横,35.84970413,139.6520142,
埼玉県立浦和第一女子高等学校,埼玉県さいたま市浦和区岸町３－８－４５,事務室入口横,35.85277499,139.6580261,
埼玉県立浦和西高等学校,埼玉県さいたま市浦和区木崎３－１－１,体育館入口,35.88907783,139.6548796,
埼玉県立浦和東高等学校,埼玉県さいたま市緑区寺山３６５,体育館１階入口横,35.90898976,139.7069246,
埼玉県立ふじみ野高等学校,埼玉県ふじみ野市大井１１５８－１,第１体育館管理室,35.84973978,139.5105718,
埼玉県立大宮高等学校,埼玉県さいたま市大宮区天沼町２－３２３,体育館体育教官室外側入口横,35.90046106,139.6369937,
埼玉県立大宮工業高等学校,埼玉県さいたま市北区本郷町１９７０,２階事務室受付横,35.94818738,139.6277884,
埼玉県立大宮光陵高等学校,埼玉県さいたま市西区中野林１４５,１階事務室前,35.89424161,139.5898932,
埼玉県立大宮商業高等学校,埼玉県さいたま市見沼区大和田町１－３５６,職員玄関,35.92796152,139.6452169,
埼玉県立大宮中央高等学校,埼玉県さいたま市北区櫛引町２－４９９－１,通信制課程事務局（Ａ棟）玄関受付横,35.91973345,139.6103419,
埼玉県立大宮東高等学校,埼玉県さいたま市見沼区膝子５６７,普通教室棟２階職員室,35.92687438,139.6852005,
埼玉県立大宮東高等学校,埼玉県さいたま市見沼区膝子５６７,第２体育館２階管理室,35.92688688,139.6852055,
埼玉県立大宮東高等学校,埼玉県さいたま市見沼区膝子５６７,特別教室棟１階保健室,35.92688633,139.6851769,
埼玉県立大宮南高等学校,埼玉県さいたま市西区植田谷本７９３,普通教室棟２階　事務室受付前,35.88811674,139.5896741,
埼玉県立大宮武蔵野高等学校,埼玉県さいたま市西区西遊馬１６０１,体育教官室,35.90940216,139.5603337,
埼玉県立小鹿野高等学校,埼玉県秩父郡小鹿野町小鹿野９６２－１,管理棟１階西側業務室内,36.02502352,138.9971814,
埼玉県立小川高等学校,埼玉県比企郡小川町大塚１１０５,正面玄関,36.05948777,139.2619115,
埼玉県立桶川高等学校,埼玉県桶川市坂田９４５,職員玄関,36.02018561,139.5748325,
埼玉県立桶川西高等学校,埼玉県桶川市川田谷１５３１－２,管理棟２階職員室前廊下,35.98417684,139.5315757,
埼玉県立越生高等学校,埼玉県入間郡越生町西和田６００,管理特別教室棟１階事務室前,35.97292195,139.3012552,
埼玉県立春日部高等学校,埼玉県春日部市粕壁５５３９,体育教官室,35.97927083,139.7416719,
埼玉県立春日部高等学校,埼玉県春日部市粕壁５５３９,管理棟１階保健室,35.97928389,139.7416794,
埼玉県立春日部工業高等学校,埼玉県春日部市梅田本町１－１－１,事務室,35.9900839,139.746118,
埼玉県立春日部女子高等学校,埼玉県春日部市粕壁東６－１－１,職員玄関,35.97952593,139.7669747,
埼玉県立春日部東高等学校,埼玉県春日部市樋籠３６３,体育教官室,35.98872133,139.7686692,
埼玉県立春日部東高等学校,埼玉県春日部市樋籠３６３,２階事務室前玄関,35.98871244,139.7686745,
埼玉県立川口高等学校,埼玉県川口市新井宿諏訪山９６３,管理棟１階廊下応接室前,35.83958295,139.7309587,
埼玉県立川口高等学校,埼玉県川口市新井宿諏訪山９６３,管理棟１階廊下応接室前,35.83958267,139.7309654,
埼玉県立川口北高等学校,埼玉県川口市木曽呂１４７７,警備員室（事務室脇の部屋）,35.85926807,139.7145266,
埼玉県立川口工業高等学校,埼玉県川口市南前川１－１０－１,体育館,35.82804808,139.7081198,
埼玉県立川口工業高等学校,埼玉県川口市南前川１－１０－１,事務室,35.82804364,139.7081306,
埼玉県立川口青陵高等学校,埼玉県川口市神戸東５２０－１,保健室前,35.85401021,139.7307546,
埼玉県立川口東高等学校,埼玉県川口市長蔵３－１－１,管理棟２階　職員室前,35.86210789,139.7610956,
埼玉県立川越高等学校,埼玉県川越市郭町２－６,事務室１階受付,35.92379421,139.48984,
埼玉県立川越工業高等学校,埼玉県川越市西小仙波２－２８－１,１階事務室受付カウンター上,35.91301923,139.4869448,
埼玉県立川越女子高等学校,埼玉県川越市六軒町１－２３,管理棟１階事務室前入口,35.915619,139.4788552,
埼玉県立川越総合高等学校,埼玉県川越市小仙波町５－１４,管理棟１階職員・来客用玄関,35.91571627,139.4914013,
埼玉県立川越西高等学校,埼玉県川越市笠幡２４８８－１,１階保健室前,35.91107006,139.3955213,
埼玉県立川越西高等学校,埼玉県川越市笠幡２４８８－１,体育館２階管理室,35.91107423,139.3955213,
埼玉県立川越初雁高等学校,埼玉県川越市砂新田２５６４,体育館,35.87803822,139.4884822,
埼玉県立川越南高等学校,埼玉県川越市南大塚１－２１－１,体育館教官室入口横,35.89809444,139.4525312,
埼玉県立川越南高等学校,埼玉県川越市南大塚１－２１－１,管理棟１階保健室前廊下,35.89808583,139.4525364,
埼玉県立北本高等学校,埼玉県北本市古市場１－１５２,管理棟１階保健室,36.04424855,139.5476905,
埼玉県立久喜高等学校,埼玉県久喜市本町３－１２－１,１階入口左角,36.06649233,139.6679773,
埼玉県立久喜工業高等学校,埼玉県久喜市野久喜４７４,管理棟１階保健室前,36.07151446,139.6856798,
埼玉県立久喜北陽高等学校,埼玉県久喜市久喜本８３７－１,体育館１階廊下,36.07778536,139.6629273,
埼玉県立熊谷高等学校,埼玉県熊谷市大原１－９－１,職員玄関前,36.15411964,139.3792831,
埼玉県立熊谷高等学校,埼玉県熊谷市大原１－９－１,体育館玄関,36.1541152,139.3792876,
埼玉県立熊谷工業高等学校,埼玉県熊谷市小島８２０,体育館入り口,36.15686866,139.3543963,
埼玉県立熊谷工業高等学校,埼玉県熊谷市小島８２０,事務室前（玄関）,36.15687477,139.3543599,
埼玉県立熊谷商業高等学校,埼玉県熊谷市広瀬８００,保健室,36.14931456,139.3560634,
埼玉県立熊谷女子高等学校,埼玉県熊谷市末広２－１３１,管理棟１階保健室前,36.1443161,139.3920605,
埼玉県立熊谷西高等学校,埼玉県熊谷市三ヶ尻２０６６,体育準備室,36.1648952,139.3318429,
埼玉県立熊谷西高等学校,埼玉県熊谷市三ヶ尻２０６６,事務室,36.16490965,139.3318145,
埼玉県立熊谷農業高等学校,埼玉県熊谷市大原３－３－１,管理棟１階保健室前廊下,36.15461954,139.3777274,
埼玉県立栗橋北彩高等学校,埼玉県久喜市伊坂１,事務室前　,36.13220654,139.68725,
埼玉県立芸術総合高等学校,埼玉県所沢市三ヶ島２－６９５－１,職員玄関事務室前受付窓口横,35.78705903,139.4050725,
埼玉県立鴻巣高等学校,埼玉県鴻巣市大間１０２０,玄関,36.05982635,139.500716,
埼玉県立鴻巣女子高等学校,埼玉県鴻巣市天神１－１－７２,１階職員室玄関,36.06034399,139.5181979,
埼玉県立越ヶ谷高等学校,埼玉県越谷市越ヶ谷２７８８－１,職員玄関事務室窓口横,35.89882652,139.7913415,
埼玉県立越谷北高等学校,埼玉県越谷市大泊５００－１,体育館入り口,35.93754039,139.7875208,
埼玉県立越谷総合技術高等学校,埼玉県越谷市谷中町３－１００－１,事務室受付横,35.88416451,139.7688584,
埼玉県立越谷西高等学校,埼玉県越谷市野島４６０－１,校舎内２階職員玄関内,35.91668446,139.7486224,
埼玉県立越谷西高等学校,埼玉県越谷市野島４６０－１,校舎内２階体育館入口,35.91667169,139.7486088,
埼玉県立越谷東高等学校,埼玉県越谷市増林荒川堤外５６７０－１,２階職員室内,35.89362324,139.812831,
埼玉県立越谷南高等学校,埼玉県越谷市レイクタウン７－９,管理棟１階職員玄関内　入口脇,35.87391316,139.8204511,
埼玉県立児玉高等学校,埼玉県本庄市児玉町八幡山４１０,管理・ＨＲ棟１階自動販売機隣（外側）,36.19544514,139.1269192,
埼玉県立児玉白楊高等学校,埼玉県本庄市児玉町金屋９８０,管理棟１階東側玄関先警備室,36.1878597,139.1196829,
埼玉県立坂戸高等学校,埼玉県坂戸市上吉田５８６,管理棟１階保健室前廊下,35.98219552,139.4012605,
埼玉県立坂戸西高等学校,埼玉県坂戸市四日市場１０１,普通教室棟2階事務室前,35.93411687,139.3527385,
埼玉県立幸手桜高等学校,埼玉県幸手市北１－１７－５９,管理棟１階事務室前玄関,36.0860476,139.7186744,
埼玉県立狭山緑陽高等学校,埼玉県狭山市広瀬東４－３－１,管理棟１階事務室前（職員下足箱脇）,35.86454172,139.3963215,
埼玉県立狭山経済高等学校,埼玉県狭山市稲荷山２－６－１,普通教室棟１階職員室東側出入口,35.84220615,139.3947739,
埼玉県立狭山工業高等学校,埼玉県狭山市富士見２－５－１,管理棟１階事務室窓口脇,35.84865526,139.4198751,
埼玉県立狭山清陵高等学校,埼玉県狭山市上奥富３４－３,２階職員室前,35.87403643,139.4252936,
埼玉県立志木高等学校,埼玉県志木市上宗岡１－１－１,管理棟職員玄関横１階事務室前,35.84101264,139.5805226,
埼玉県立蓮田松韻高等学校,埼玉県蓮田市黒浜４０８８,管理棟１階事務室前,36.00056939,139.6744534,
埼玉県立庄和高等学校,埼玉県春日部市金崎５８３,２階受付下足箱横,35.99194752,139.8054437,
埼玉県立白岡高等学校,埼玉県白岡市高岩２７５－１,体育館管理室,36.03217393,139.6763905,
埼玉県立進修館高等学校,埼玉県行田市長野１３２０,西管理棟玄関（西１号館）,36.15116259,139.4661983,
埼玉県立杉戸高等学校,埼玉県北葛飾郡杉戸町清地１-１-３６,２階玄関脇の鍵保管庫,36.02853585,139.7322509,
埼玉県立杉戸農業高等学校,埼玉県北葛飾郡杉戸町堤根１６８４－１,１号館（管理棟）１階事務室横,36.02401404,139.7489164,
埼玉県立草加高等学校,埼玉県草加市青柳５－３－１,体育館１階体育教官室,35.85252981,139.8128163,
埼玉県立草加高等学校,埼玉県草加市青柳５－３－１,南校舎１階保健室,35.85252537,139.8128107,
埼玉県立草加西高等学校,埼玉県草加市原町２－７－１,管理棟（１F）保健室前,35.84694221,139.7741442,
埼玉県立草加東高等学校,埼玉県草加市柿木町１１１０－１,体育館１階外,35.86557065,139.8261229,
埼玉県立草加南高等学校,埼玉県草加市柳島町６６,警備室,35.81804192,139.7883178,
埼玉県立秩父農工科学高等学校,埼玉県秩父市大野原２０００,管理棟玄関内　事務室受付口,36.02240241,139.0909676,
埼玉県立秩父農工科学高等学校,埼玉県秩父市大野原２０００,体育館玄関内,36.02241102,139.0909676,
埼玉県立秩父高等学校,埼玉県秩父市上町２－２３－４５,玄関内旧警備員室,35.99256204,139.0752251,
埼玉県立鶴ヶ島清風高等学校,埼玉県鶴ヶ島市高倉９４６－１,職員室,35.93193589,139.3793858,
埼玉県立常盤高等学校,埼玉県さいたま市桜区上大久保５１９－１,体育館,35.8707221,139.6129345,
埼玉県立常盤高等学校,埼玉県さいたま市桜区上大久保５１９－１,事務室前,35.87070655,139.612937,
埼玉県立所沢高等学校,埼玉県所沢市久米１２３４,全日制職員室入口の壁面,35.78501795,139.4603248,
埼玉県立所沢北高等学校,埼玉県所沢市並木５－４,玄関（事務室前）,35.81151781,139.4625338,
埼玉県立所沢商業高等学校,埼玉県所沢市林２－８８,管理棟１階　受付室前,35.80154644,139.4005381,
埼玉県立所沢中央高等学校,埼玉県所沢市並木８－２,体育館２階　体育準備室,35.81161866,139.4740417,
埼玉県立所沢中央高等学校,埼玉県所沢市並木８－２,１階事務室前,35.81162185,139.4740252,
埼玉県立所沢西高等学校,埼玉県所沢市北野新町２－５－１１,職員玄関,35.80133412,139.4272014,
埼玉県立戸田翔陽高等学校,埼玉県戸田市新曽１０９３,１階事務室受付横,35.81901988,139.6649524,
埼玉県立豊岡高等学校,埼玉県入間市豊岡１－１５－１,１号館１階玄関横,35.83797207,139.3904547,
埼玉県立滑川総合高等学校,埼玉県比企郡滑川町月の輪４－１８－２６,体育管理室,36.04314227,139.340149,
埼玉県立南稜高等学校,埼玉県戸田市美女木４－２３－４,２階職員室,35.82412555,139.6490885,
埼玉県立新座高等学校,埼玉県新座市池田１－１－２,職員室,35.77552067,139.5738961,
埼玉県立新座柳瀬高等学校,埼玉県新座市大和田４－１２－１,大会議室前,35.81596051,139.5513625,
埼玉県立新座総合技術高等学校,埼玉県新座市新塚１－３－１,職員玄関,35.77879476,139.5848164,
埼玉県立蓮田松韻高等学校,埼玉県蓮田市黒浜４０８８,体育教官室,36.00056939,139.6744778,
埼玉県立鳩ヶ谷高等学校,埼玉県川口市里２２５－１,保健室前,35.8373828,139.7264887,
埼玉県立鳩山高等学校,埼玉県比企郡鳩山町松ヶ丘４－１－２,職員室東側入口,35.99217383,139.3490826,
埼玉県立羽生高等学校,埼玉県羽生市加羽ヶ崎３０３－１,管理棟１階玄関　受付前,36.16176067,139.5423555,
埼玉県立羽生実業高等学校,埼玉県羽生市羽生３２３,職員室,36.178019,139.5281386,
埼玉県立羽生第一高等学校,埼玉県羽生市下岩瀬１５３,体育教官室,36.16067998,139.532722,
埼玉県立羽生第一高等学校,埼玉県羽生市下岩瀬１５３,職員玄関,36.16067998,139.532722,
埼玉県立飯能高等学校,埼玉県飯能市本町１７－１３,管理棟１階事務室前玄関,35.85838813,139.3188458,
埼玉県立飯能南高等学校,埼玉県飯能市阿須２９８－２,職員室,35.83604622,139.3298525,
埼玉県立日高高等学校,埼玉県日高市旭ヶ丘８０６,職員室,35.90857991,139.3687121,
埼玉県立深谷高等学校,埼玉県深谷市宿根３１５,職員玄関,36.20245891,139.2663728,
埼玉県立深谷商業高等学校,埼玉県深谷市原郷８０,事務室,36.1974671,139.2914878,
埼玉県立深谷第一高等学校,埼玉県深谷市常盤町２１－１,管理棟１階玄関東側壁に取付,36.19548719,139.2969738,
埼玉県立吹上秋桜高等学校,埼玉県鴻巣市前砂９０７－１,普通教室棟２階事務室,36.08641466,139.4667848,
埼玉県立富士見高等学校,埼玉県富士見市上南畑９５０,体育教官室,35.86423593,139.562579,
埼玉県立不動岡高等学校,埼玉県加須市不動岡１－７－４５,小会議室,36.13295222,139.5923166,
埼玉県立不動岡高等学校,埼玉県加須市不動岡１－７－４５,体育研究室,36.13297111,139.5923475,
埼玉県立誠和福祉高等学校,埼玉県羽生市神戸７０６,管理棟１階保健室前,36.13750562,139.5623829,
埼玉県立本庄高等学校,埼玉県本庄市柏１－４－１,体育館入り口壁面,36.23381795,139.1764767,
埼玉県立松伏高等学校,埼玉県北葛飾郡松伏町ゆめみ野東２－７－１,普通教室兼管理棟２階職員室前,35.92451883,139.8297797,
埼玉県立松山高等学校,埼玉県東松山市松山町１－６－１０,管理棟１階保健室前,36.04542213,139.3963555,
埼玉県立松山高等学校,埼玉県東松山市松山町１－６－１０,体育館,36.04541963,139.3963525,
埼玉県立松山女子高等学校,埼玉県東松山市和泉町２－２２,管理棟１階保健室前廊下,36.03355148,139.394662,
埼玉県立三郷高等学校,埼玉県三郷市花和田６２０－１,管理棟２階職員室,35.83010804,139.8698432,
埼玉県立三郷高等学校,埼玉県三郷市花和田６２０－１,管理棟２階職員室,35.83008276,139.8698529,
埼玉県立三郷北高等学校,埼玉県三郷市大広戸８０８,事務室窓口前（職員玄関入口奥）,35.84302979,139.8755475,
埼玉県立三郷工業技術高等学校,埼玉県三郷市彦成３－３２５,体育館２階入口,35.85221163,139.8582674,
埼玉県立皆野高等学校,埼玉県秩父郡皆野町大渕１９－１,本館１階事務室前,36.07699479,139.0892192,
埼玉県立宮代高等学校,埼玉県南埼玉郡宮代町東６１１,体育館１階廊下,36.00555484,139.7322983,
埼玉県立妻沼高等学校,埼玉県熊谷市弥藤吾４８０,校舎２階事務室前廊下,36.21594965,139.3819518,
埼玉県立八潮高等学校,埼玉県八潮市鶴ヶ曽根６５０,（体育館）玄関,35.83059842,139.8347306,
埼玉県立八潮南高等学校,埼玉県八潮市南川崎根通５１９－１,１階事務室前,35.81441032,139.8582301,
埼玉県立吉川美南高等学校,埼玉県吉川市高久６００,管理棟１階保健室,35.87428267,139.8653757,
埼玉県立与野高等学校,埼玉県さいたま市中央区本町西２－８－１,保健室前通路,35.88478206,139.6185831,
埼玉県立寄居城北高等学校,埼玉県大里郡寄居町桜沢２６０１,体育館（準備室）,36.13116738,139.2079646,
埼玉県立寄居城北高等学校,埼玉県大里郡寄居町桜沢２６０１,事務室,36.13117376,139.2079673,
埼玉県立和光高等学校,埼玉県和光市新倉３－２２－１,体育館管理室,35.79717136,139.6284842,
埼玉県立和光国際高等学校,埼玉県和光市広沢４－１,生徒玄関（中側）,35.77804814,139.6040895,
埼玉県立鷲宮高等学校,埼玉県久喜市中妻１０２０,体育館　体育教官室内,36.09028269,139.6469768,
埼玉県立蕨高等学校,埼玉県蕨市北町５－３－８,Ａ棟１階事務室受付横,35.83288718,139.6741824,
埼玉県立特別支援学校塙保己一学園,埼玉県川越市笠幡８５－１,職員玄関,35.90848297,139.4207415,
埼玉県立特別支援学校大宮ろう学園,埼玉県さいたま市北区植竹町２－６８,保健室前廊下,35.93149616,139.6259092,
埼玉県立特別支援学校坂戸ろう学園,埼玉県坂戸市鎌倉町１４－１,１階玄関前廊下,35.96654489,139.4053544,
埼玉県立熊谷特別支援学校,埼玉県熊谷市川原明戸６０５,保健室入口,36.14100281,139.3176964,
埼玉県立蓮田特別支援学校,埼玉県蓮田市黒浜４０８８－４,１階保健室入口の廊下壁面,35.99867071,139.6740885,
埼玉県立川越特別支援学校,埼玉県川越市古谷上２６９０－１,管理棟２階職員・来客用玄関,35.92008639,139.5245164,
埼玉県立越谷特別支援学校,埼玉県越谷市船渡５００,管理棟１階保健室,35.93248645,139.7954328,
埼玉県立和光特別支援学校,埼玉県和光市広沢４－３,職員玄関内,35.77868635,139.6021833,
埼玉県立和光南特別支援学校,埼玉県和光市広沢４－５,職員玄関,35.77910264,139.6004145,
埼玉県立行田特別支援学校,埼玉県行田市長野４２３５,職員玄関,36.13366251,139.472103,
埼玉県立春日部特別支援学校,埼玉県春日部市八丁目７７６－１,高等部棟２階　事務室前　廊下,35.98992515,139.7607679,
埼玉県立川口特別支援学校,埼玉県川口市赤井１２３４,保健室,35.83335834,139.7505421,
埼玉県立秩父特別支援学校,埼玉県秩父市大宮５６７６－１,管理棟１階保健室,36.00578563,139.0993059,
埼玉県立所沢特別支援学校,埼玉県所沢市中富南１－１８０２－７,事務室内受付横,35.80934575,139.4907887,
埼玉県立三郷特別支援学校,埼玉県三郷市駒形５６,１階保健室,35.84814557,139.863756,
埼玉県立本庄特別支援学校,埼玉県本庄市栗崎８２８,保健室,36.21082474,139.1875578,
埼玉県立上尾特別支援学校,埼玉県上尾市東町３－２００９－３,Ａ棟１階事務室窓口左側壁面,35.97609582,139.6043951,
埼玉県立東松山特別支援学校,埼玉県東松山市野田１３０６－１,職員用玄関そばのエレベーター前,36.05337344,139.3857922,
埼玉県立狭山特別支援学校,埼玉県狭山市笹井２９５８,事務室,35.84529064,139.3678341,
埼玉県立浦和特別支援学校,埼玉県さいたま市緑区大崎５８,保健室,35.88220607,139.7156497,
埼玉県立岩槻特別支援学校,埼玉県さいたま市岩槻区馬込２４２６－１,１階保健室,35.96854058,139.6566259,
埼玉県立日高特別支援学校,埼玉県日高市高富５９－１,職員室,35.88128129,139.3882029,
埼玉県立久喜特別支援学校,埼玉県久喜市上清久１１００,保健室,36.07647455,139.6478423,
埼玉県立大宮北特別支援学校,埼玉県さいたま市西区中釘後谷２２９０－１,（１F）保健室前廊下,35.9432701,139.5741323,
埼玉県立越谷西特別支援学校,埼玉県越谷市西新井西前８５０－１,南校舎２階事務室,35.88937405,139.7532065,
埼玉県立宮代特別支援学校,埼玉県南埼玉郡宮代町金原６３６－１,保健室,36.01183053,139.7120125,
埼玉県立宮代特別支援学校,埼玉県南埼玉郡宮代町金原６３６－１,調理・被服準備室,36.01183053,139.7120125,
埼玉県立騎西特別支援学校,埼玉県加須市上種足四番８８８－１,職員室前廊下,36.08429849,139.5591309,
埼玉県立毛呂山特別支援学校,埼玉県入間郡毛呂山町川角１０２４－１,事務室,35.95771173,139.3431667,
埼玉県立川島ひばりが丘特別支援学校,埼玉県比企郡川島町伊草南向野７８０,１階職員室,35.96606489,139.4860169,
埼玉県立特別支援学校 さいたま桜高等学園,埼玉県さいたま市桜区上大久保５１９－７,（１F）玄関エレベーター前,35.86999633,139.6119373,
埼玉県立川の博物館,埼玉県大里郡寄居町小園３９,本館受付前,36.11572971,139.2195045,
埼玉県立八潮高等学校,埼玉県八潮市鶴ヶ曽根６５０,１階管理棟,35.83061342,139.8347017,
埼玉県庁,埼玉県さいたま市浦和区高砂３－１５－１,本庁舎１階　南玄関,35.85700406,139.6490578,
埼玉県東松山保健所,埼玉県東松山市若松町２－６－４５,事務室,36.03026646,139.4110788,
そうか光生園,埼玉県草加市柿木町１２１５－１,医務室,35.86584666,139.8236445,
皆光園,埼玉県深谷市人見１９９８,歯科診療室,36.16185108,139.2582862,
埼玉県立特別支援学校坂戸ろう学園,埼玉県坂戸市鎌倉町１４－１,寄宿舎　職員室,35.96654489,139.4053544,
埼玉県立特別支援学校羽生ふじ高等学園,埼玉県羽生市下羽生３２０－１,１階職員玄関受付横,36.16926619,139.5520114,
埼玉県立特別支援学校大宮ろう学園,埼玉県さいたま市北区植竹町２－６８,寄宿舎　事務室,35.93149616,139.6259092,
大宮公園事務所,埼玉県さいたま市大宮区高鼻町４,小動物園,35.91864889,139.6322414,
埼玉県社会福祉総合センター（彩の国すこやかプラザ）,埼玉県さいたま市浦和区針ケ谷４－２－６５,１階エントランス,35.87891519,139.6380514,
埼玉県吉見浄水場,埼玉県比企郡吉見町大和田１９８,中央管理室（２Ｆ）,36.03373981,139.478236,
埼玉県行田浄水場,埼玉県行田市小針１６３２,管理本館２F　事務室入口横,36.13559263,139.4949401,
埼玉県庄和浄水場,埼玉県春日部市新宿新田１００,管理本館２F　中央管理室,35.96837191,139.8286352,
埼玉県大久保浄水場,埼玉県さいたま市桜区宿６１８,中央本館１Ｆ事務室,35.87469969,139.5913764,
埼玉県森林科学館,埼玉県秩父市中津川４４７,彩の国ふれあいの森管理事務所入口,35.99450706,138.8006895,
埼玉県創業・ベンチャー支援センター,埼玉県さいたま市中央区上落合２－３－２,新都心ビジネス交流プラザ１階,35.89057804,139.6278679,
埼玉県立進修館高等学校,埼玉県行田市長野１３２０,東１号館　玄関,36.15118231,139.4661822,
埼玉県立川越特別支援学校　川越たかしな分校,埼玉県川越市砂新田２５６４,１階保健室前,35.87787797,139.4887075,
埼玉県立大宮北特別支援学校　さいたま西分校,埼玉県さいたま市西区西遊馬１６０１,校内,35.90928773,139.560226,
埼玉県立東松山特別支援学校こどもの心のケアハウス嵐山学園内教室,埼玉県比企郡嵐山町菅谷東原２６４－１,校内　職員室,36.03677681,139.3274496,
埼玉県立八潮南高等学校,埼玉県八潮市南川崎根通５１９－１,体育館１階　入口付近（屋内）,35.81440921,139.8582276,
加須はなさき公園,埼玉県加須市水深１７２２,管理執務室（夏季プール期間は中央監視塔）,36.10123383,139.632349,
埼玉県立大学,埼玉県越谷市三野宮８２０,北棟１階メディアギャラリー（看護学科スタッフルーム１　付近壁面）,35.92997204,139.7552588,
所沢航空記念公園,埼玉県所沢市並木１－１３,テニス受付,35.79542428,139.4707193,
所沢航空記念公園,埼玉県所沢市並木１－１３,茶室　彩翔亭,35.79729964,139.4711592,
埼玉県立誠和福祉高等学校,埼玉県羽生市神戸７０６,体育館,36.13750562,139.5623829,
埼玉県立滑川総合高等学校,埼玉県比企郡滑川町月の輪４－１８－２６,職員室前（普通教室棟２階）,36.04315976,139.340149,
埼玉県庁,埼玉県さいたま市浦和区高砂３－１５－１,第２庁舎　１階北側玄関,35.85871414,139.6487691,
埼玉県立春日部工業高等学校,埼玉県春日部市梅田本町１－１－１,体育館管理室,35.99008612,139.7461122,
彩の国さいたま人づくり広域連合　自治人材開発センター,埼玉県さいたま市北区土呂町２－２４－１,１階　階段横,35.92930771,139.6331298,
埼玉県立大学,埼玉県越谷市三野宮８２０,体育館１階入口（事務室窓口壁面）,35.92901189,139.7560852,
埼玉県立大滝げんきプラザ,埼玉県秩父市大滝５９４４－２,事務室,35.94927482,138.9003635,
埼玉県立越ヶ谷高等学校,埼玉県越谷市越ケ谷２７８８－１,体育館入口フロア内,35.89882652,139.7913415,
埼玉県立狭山工業高等学校,埼玉県狭山市富士見２－５－１,実習棟Ｂ棟　機械科管理室　前室,35.84864831,139.4198629,
埼玉県立狭山工業高等学校,埼玉県狭山市富士見２－５－１,体育館階段,35.84865276,139.4198573,
埼玉県庁,埼玉県さいたま市浦和区高砂３－１５－１,県議会議事堂　１階玄関ホール,35.85730873,139.6481351,
埼玉県立深谷高等学校,埼玉県深谷市宿根３１５,体育館（体育教官室）,36.20246835,139.2663344,
埼玉県立神川げんきプラザ,埼玉県児玉郡神川町池田７５６,事務室,36.18889629,139.0796877,
埼玉県立自然の博物館,埼玉県秩父郡長瀞町長瀞１４１７－１,１階ロビー自動ドア左側,36.08748126,139.1161081,
埼玉県中央児童相談所,埼玉県上尾市上尾村１２４２－１,相談所１階事務室内,35.98306164,139.5978981,
埼玉県南児童相談所,埼玉県川口市芝下１－１－５６,一時保護所事務室内,35.83522178,139.7000427,
埼玉県川越児童相談所,埼玉県川越市宮元町３３－１,相談所１階事務室内,35.93162065,139.4833827,
埼玉県所沢児童相談所,埼玉県所沢市並木１－９－２,相談所１階事務室内,35.7997744,139.4727484,
埼玉県熊谷児童相談所,埼玉県熊谷市箱田５－１３－１,相談所（２F）事務室内,36.15106284,139.3924274,
埼玉県越谷児童相談所,埼玉県越谷市恩間４０２－１,一時保護所棟（１F）面談室前,35.92479293,139.7699182,
浦和警察署,埼玉県さいたま市浦和区常盤４－１１－２１,庁舎１階受付,35.86201095,139.64708,
浦和東警察署,埼玉県さいたま市緑区東浦和７－４２－１,庁舎１階受付,35.8727998,139.7013632,
浦和西警察署,埼玉県さいたま市中央区上峰３－４－１,庁舎１階受付,35.87271542,139.6205271,
大宮警察署,埼玉県さいたま市大宮区北袋町１－１９７－７,庁舎１階受付,35.89317592,139.6423022,
大宮東警察署,埼玉県さいたま市見沼区風渡野３５－１,庁舎１階受付,35.93655579,139.6747232,
大宮西警察署,埼玉県さいたま市西区三橋６－６４５,庁舎１階受付,35.91785624,139.5925171,
蕨警察署,埼玉県蕨市錦町１－１２－２１,庁舎１階受付,35.82038873,139.67942,
川口警察署,埼玉県川口市西青木３－２－４,庁舎１階受付,35.81763791,139.7099189,
武南警察署,埼玉県川口市辻１０１０－２,庁舎１階受付,35.82974836,139.7360695,
朝霞警察署,埼玉県朝霞市幸町２－６－９,庁舎１階受付,35.78967081,139.5865769,
新座警察署,埼玉県新座市野火止７－１－３８,庁舎１階受付,35.79812656,139.567171,
草加警察署,埼玉県草加市花栗３－２－２３,庁舎１階受付,35.83693344,139.7895836,
上尾警察署,埼玉県上尾市本町５－１－１,庁舎１階受付,35.98028914,139.5902139,
鴻巣警察署,埼玉県鴻巣市東４－１－３,庁舎１階受付,36.06395829,139.5175739,
川越警察署,埼玉県川越市大仙波４１０－１,庁舎１階受付,35.91179804,139.4994958,
東入間警察署,埼玉県ふじみ野市うれし野１－４－１,庁舎１階受付,35.8550494,139.5188639,
所沢警察署,埼玉県所沢市並木１－６－１,庁舎１階受付,35.80037402,139.4715082,
狭山警察署,埼玉県狭山市稲荷山２－５－１,庁舎１階受付,35.84298025,139.3958327,
西入間警察署,埼玉県坂戸市関間２－４－１７,庁舎１階受付,35.95328898,139.3983683,
飯能警察署,埼玉県飯能市双柳５３１,庁舎１階受付,35.85831608,139.3354791,
東松山警察署,埼玉県東松山市上野本１１１７－１,庁舎１階受付,36.02351398,139.4040274,
小川警察署,埼玉県比企郡小川町小川３４４,庁舎１階受付,36.05479284,139.2655211,
秩父警察署,埼玉県秩父市上宮地町２９－２,庁舎１階受付,36.00114897,139.0904377,
小鹿野警察署,埼玉県秩父郡小鹿野町小鹿野２８１６－１,庁舎１階受付,36.01622881,139.0125223,
本庄警察署,埼玉県本庄市本庄４－２－７,庁舎１階受付,36.24509981,139.1902587,
児玉警察署,埼玉県本庄市児玉町児玉１４７０－１,庁舎１階受付,36.18573057,139.1433109,
熊谷警察署,埼玉県熊谷市石原４４１－４,庁舎１階受付,36.15710011,139.3679168,
深谷警察署,埼玉県深谷市戸森８８－１,庁舎１階受付,36.20785695,139.2782168,
寄居警察署,埼玉県大里郡寄居町桜沢９２３,庁舎１階受付,36.12584886,139.1994591,
行田警察署,埼玉県行田市長野４１９５－１,庁舎１階受付,36.13541813,139.4715543,
羽生警察署,埼玉県羽生市東７－１３－１,庁舎１階受付,36.17065373,139.5491771,
加須警察署,埼玉県加須市大門町１９－５３,庁舎１階受付,36.13130801,139.5940502,
岩槻警察署,埼玉県さいたま市岩槻区岩槻５１０６,庁舎１階受付,35.95642968,139.6859517,
春日部警察署,埼玉県春日部市大沼１－８２,庁舎１階受付,35.96661102,139.7472314,
越谷警察署,埼玉県越谷市東越谷６－６７－１,庁舎１階受付,35.8956666,139.801651,
久喜警察署,埼玉県久喜市上早見１５４,庁舎１階受付,36.06758034,139.6603502,
幸手警察署,埼玉県幸手市上吉羽９６４,庁舎１階受付,36.0822999,139.7365036,
杉戸警察署,埼玉県北葛飾郡杉戸町堤根４６７３－１,庁舎１階受付,36.02126201,139.7446599,
吉川警察署,埼玉県三郷市上彦名１４４－３,庁舎１階受付,35.84966022,139.8468793,
運転免許センター,埼玉県鴻巣市鴻巣４０５－４,庁舎１階救護室,36.06994942,139.5228282,
埼玉県警察学校,埼玉県さいたま市北区植竹町１－８０４,庁舎１階受付,35.92899834,139.6243386,
埼玉県立高等看護学院,埼玉県熊谷市板井１６９６,校舎１階窓口,36.11107978,139.3060873,
埼玉県立嵐山史跡の博物館,埼玉県比企郡嵐山町菅谷７５７,ロビーホール,36.03689892,139.3234441,
埼玉県立歴史と民俗の博物館,埼玉県さいたま市大宮区高鼻町４－２１９,館内,35.9211841,139.6300807,
埼玉県立文書館,埼玉県さいたま市浦和区高砂４－３－１８,２階文書閲覧室前,35.85732425,139.6469802,
埼玉県立熊谷図書館,埼玉県熊谷市箱田５－６－１,２階閲覧室入口,36.15048537,139.3911542,
埼玉県立長瀞げんきプラザ,埼玉県秩父郡長瀞町井戸３６７,事務室,36.10935632,139.1174024,
埼玉県立浦和北高等学校,埼玉県さいたま市桜区五関５９５,Ｈ・Ｒ管理棟（A棟）２階職員室前,35.86686399,139.5947306,
埼玉県立白岡高等学校,埼玉県白岡市高岩２７５－１,正面玄関,36.03217393,139.6763905,
埼玉県立鴻巣高等学校,埼玉県鴻巣市大間１０２０,体育館玄関,36.05981774,139.5007374,
埼玉県立名栗げんきプラザ,埼玉県飯能市上名栗１２８９－２,事務所,35.93572472,139.1535568,
埼玉県立総合教育センター,埼玉県行田市富士見町２－２４,体育館玄関,36.15074007,139.4738913,
埼玉県立久喜図書館,埼玉県久喜市下早見８５－５,２階ロビー　コインロッカー横,36.06246027,139.6674351,
埼玉県立狭山経済高等学校,埼玉県狭山市稲荷山２－６－１,体育館,35.84221059,139.3947792,
埼玉県立小川高等学校,埼玉県比企郡小川町大塚１１０５,体育館入口,36.05940525,139.2610149,
埼玉県浦和競馬組合,埼玉県さいたま市南区大谷場１－８－４２,事務所内,35.85754729,139.668015,
埼玉県中川水循環センター,埼玉県三郷市番匠免３－２－２,中央監視室,35.83446821,139.8634736,
埼玉県動物指導センター,埼玉県熊谷市板井１２３,玄関ホール,36.10397627,139.3111921,
加須保健所,埼玉県加須市南町５－１５,庁舎１階,36.1200347,139.5991657,
埼玉県立熊谷高等技術専門校,埼玉県熊谷市新堀新田５２２,１階職員室,36.17379083,139.3204204,
朝霞保健所,埼玉県朝霞市青葉台１－１０－５,１階事務所,35.79005232,139.59281,
埼玉県飯能合同庁舎,埼玉県飯能市双柳３５３,２階県税事務所,35.85429867,139.3321432,
埼玉県立職業能力開発センター,埼玉県さいたま市北区櫛引町２－４９９－１１,センター事務室,35.92042473,139.6089636,
狭山保健所,埼玉県狭山市稲荷山２－１６－１,１階事務室レジ横,35.8424222,139.3935684,
埼玉県東松山地方庁舎,埼玉県東松山市六軒町５－１,県税事務所執務室,36.03238072,139.4130658,
埼玉県川口地方庁舎,埼玉県川口市西青木２－１３－１,県税事務所１階カウンター,35.81552075,139.7137245,
埼玉県立春日部高等技術専門校,埼玉県春日部市下大増新田６１－１,管理棟１階,35.95745389,139.7430471,
埼玉県立熊谷高等技術専門校秩父分校,埼玉県秩父市上町３－２１－７,１階事務室,35.98918016,139.0736226,
草加保健所,埼玉県草加市西町４２５－２,１階事務室内,35.82938084,139.795662,
埼玉県春日部地方庁舎,埼玉県春日部市大沼１－７６,庁舎１階東側保健所前,35.96794363,139.7465566,
埼玉県越谷合同庁舎,埼玉県越谷市越ケ谷４－２－８２,県税事務所１階ロビー,35.89249526,139.7904604,
埼玉県秩父地方庁舎,埼玉県秩父市東町２９－２０,秩父地域振興センター執務室,35.99221391,139.0812194,
埼玉県浦和合同庁舎,埼玉県さいたま市浦和区北浦和５－６－５,１階ロビー,35.87401731,139.640418,
埼玉県狭山丘陵いきものふれあいの里センター,埼玉県所沢市荒幡７８２,事務所内,35.77474482,139.4452237,
さいたま緑の森博物館,埼玉県入間市宮寺８８９－１,事務所内,35.78631272,139.3840407,
埼玉県立深谷はばたき特別支援学校,埼玉県深谷市本田５０,なかよしハウス１階保健室前,36.13192119,139.2808947,
埼玉県立深谷はばたき特別支援学校,埼玉県深谷市本田５０,体育館入口,36.13198173,139.2808947,
埼玉県上尾地方庁舎（県央地域振興センター）,埼玉県上尾市南２３９－１,県央地域振興センター事務室内,35.99518908,139.5885951,
川越高等技術専門校,埼玉県川越市並木５７２－１,管理・技術棟２階保健室,35.89989676,139.5261132,
幸手保健所,埼玉県幸手市中１－１６－４,事務室,36.07583064,139.7163673,
埼玉県農業大学校,埼玉県熊谷市樋春２０１０,（１F）事務棟事務室前,36.11199272,139.3558129,
秩父保健所,埼玉県秩父市桜木町８－１８,事務室,36.00285439,139.0818611,
坂戸保健所,埼玉県坂戸市石井２３２７－１,事務室（火災報知器スイッチの下）,35.96844281,139.4079782,
南部保健所,埼玉県川口市前川１－１１－１,１階　事務室,35.83331474,139.7093667,
埼玉県所沢地方庁舎（県西部地域振興センター）,埼玉県所沢市並木１－８－１,１階入口横,35.80007268,139.4719382,
鴻巣保健所,埼玉県鴻巣市東４－５－１０,１階事務所,36.06534151,139.519312,
埼玉県朝霞地方庁舎（朝霞県税事務所）,埼玉県朝霞市三原１－３－１,１階執務室,35.80899341,139.5785207,
みどりの村,埼玉県秩父郡小鹿野町飯田８５３,案内所,36.03566609,138.9826539,
県民の森,埼玉県秩父郡横瀬町芦ケ久保丸山北平８９６,管理事務所,35.99360869,139.1625765,
長瀞総合射撃場,埼玉県秩父郡長瀞町野上下郷２３９５－１,クラブハウス内事務室,36.12853084,139.0974622,
川口高等技術専門校,埼玉県川口市青木４－４－２２,２階事務室内,35.8156304,139.7216047,
狭山稲荷山公園,埼玉県狭山市稲荷山１－２３－１,管理事務所,35.8467021,139.397519,
埼玉県本庄地方庁舎（本庄県税事務所）,埼玉県本庄市朝日町１－４－６,庁舎玄関横,36.23270851,139.1927867,
埼玉県熊谷地方庁舎（北部地域振興センター）,埼玉県熊谷市末広３－９－１,１F　ロビー,36.14346603,139.3964268,
埼玉県荒川水循環センター,埼玉県戸田市笹目５－３７－１４,管理棟１階中央監視室,35.81303771,139.6417263,
本庄保健所,埼玉県本庄市前原１－８－１２,事務室,36.23676821,139.1781884,
埼玉県立羽生実業高等学校,埼玉県羽生市羽生３２３,体育館（体育教官室）,36.178019,139.5281386,
埼玉県総合リハビリテーションセンター,埼玉県上尾市西貝塚１４８－１,A棟４階入所支援事務室,35.93806179,139.5530801,
埼玉県総合リハビリテーションセンター,埼玉県上尾市西貝塚１４８－１,D棟１階支援部事務室,35.93806179,139.5530801,
埼玉県総合リハビリテーションセンター,埼玉県上尾市西貝塚１４８－１,B棟１階総合受付脇,35.93806179,139.5530801,
埼玉県総合リハビリテーションセンター,埼玉県上尾市西貝塚１４８－１,F棟５階第三病棟ナースステーション,35.93806179,139.5530801,
埼玉県総合リハビリテーションセンター,埼玉県上尾市西貝塚１４８－１,C棟地階プール管理室,35.93806179,139.5530801,
埼玉県総合リハビリテーションセンター,埼玉県上尾市西貝塚１４８－１,RI棟検査室,35.93806179,139.5530801,
埼玉県立小川げんきプラザ,埼玉県比企郡小川町木呂子５６１,本館２階事務室,36.08182986,139.2267952,
埼玉県立小川げんきプラザ,埼玉県比企郡小川町木呂子５６１,活動センター,36.08182986,139.2267952,
埼玉県立精神医療センター,埼玉県北足立郡伊奈町小室８１８－２,外来処置室,35.98257218,139.6198488,
埼玉県立精神医療センター,埼玉県北足立郡伊奈町小室８１８－２,第２外来処置室,35.98257218,139.6198488,
埼玉県立循環器・呼吸器病センター,埼玉県熊谷市板井１６９６,本館棟４階東病棟エレベーターホール,36.11114335,139.3049271,
埼玉県立循環器・呼吸器病センター,埼玉県熊谷市板井１６９６,本館棟５階大会議室入口,36.11114335,139.3049271,
埼玉県立循環器・呼吸器病センター,埼玉県熊谷市板井１６９６,治療棟１階呼吸器内科受付,36.11114335,139.3049271,
埼玉県立循環器・呼吸器病センター,埼玉県熊谷市板井１６９６,治療棟２階エレベーターホール,36.11114335,139.3049271,
埼玉県立小児医療センター岩槻診療所,埼玉県さいたま市岩槻区馬込２１００,処置室,35.96849499,139.6549441,
埼玉県立小児医療センター岩槻診療所,埼玉県さいたま市岩槻区馬込２１００,処置室,35.96849499,139.6549441,
埼玉県立上尾かしの木特別支援学校,埼玉県上尾市平塚１２８１－１,事務室,35.98723421,139.611712,
埼玉県立大宮北特別支援学校　さいたま西分校,埼玉県さいたま市西区西遊馬１６０１,事務室,35.90940939,139.5603426,
埼玉県立川越特別支援学校　川越たかしな分校,埼玉県川越市砂新田２５６４,事務室,35.87788658,139.4886967,
埼玉県立特別支援学校 さいたま桜高等学園,埼玉県さいたま市桜区上大久保５１９－７,（４F）職員室,35.86999633,139.6119373,
埼玉県立所沢おおぞら特別支援学校,埼玉県所沢市南永井６１９－７,事務室,35.81436942,139.5245992,
埼玉県立特別支援学校塙保己一学園,埼玉県川越市笠幡８５－１,寄宿舎,35.90848297,139.4207415,
埼玉県立特別支援学校羽生ふじ高等学園,埼玉県羽生市下羽生３２０－１,事務室,36.16926619,139.5520114,
埼玉県行田地方庁舎（利根地域振興センター）,埼玉県行田市本丸２－２０,１階執務室,36.13758886,139.4562867,
埼玉県立中央高等技術専門校,埼玉県上尾市戸崎９７５,管理棟玄関,35.94895807,139.5946728,
ふれあいキューブ（東部地域振興ふれあい拠点施設）,埼玉県春日部市南１－１－７,１階ララガーデン側入口自販機前,35.97808467,139.7552935,
埼玉県立加須げんきプラザ,埼玉県加須市花崎４５６,研修棟エントランス,36.10652377,139.6314996,
埼玉県立新座柳瀬高等学校,埼玉県新座市大和田４－１２－１,体育館,35.81596468,139.5513625,
埼玉県立草加かがやき特別支援学校草加分校,埼玉県草加市原町２－７－１県立草加西高校内,生徒昇降口,35.84704827,139.7739034,
川越公園管理事務所,埼玉県川越市池辺８８０,フィットネスジムフロント,35.91067822,139.4495342,
川越公園管理事務所,埼玉県川越市池辺８８０,公園管理事務所２階,35.91234436,139.4505641,
埼玉県立川口青陵高等学校,埼玉県川口市神戸東５２０－１,体育館１階,35.85400465,139.7307562,
埼玉県立川口青陵高等学校,埼玉県川口市神戸東５２０－１,普通教室棟２階職員室,35.85401882,139.7307304,
埼玉県立嵐山郷,埼玉県比企郡嵐山町古里１８４８,２寮職員室,36.10807053,139.3007964,
埼玉県立伊奈学園総合高等学校,埼玉県北足立郡伊奈町学園４－１－１,理科棟モール,36.01470558,139.6126817,
埼玉県立嵐山郷,埼玉県比企郡嵐山町古里１８４８,３寮職員室,36.1078403,139.301387,
埼玉県立嵐山郷,埼玉県比企郡嵐山町古里１８４８,４寮職員室,36.10766697,139.3011078,
埼玉県立嵐山郷,埼玉県比企郡嵐山町古里１８４８,６寮職員室,36.10784053,139.299681,
埼玉県立草加かがやき特別支援学校,埼玉県草加市松原４－６－１,事務室前,35.84584102,139.7886986,
埼玉県立草加かがやき特別支援学校,埼玉県草加市松原４－６－１,保健室前,35.84553884,139.7889989,
埼玉県立草加かがやき特別支援学校,埼玉県草加市松原４－６－１,南棟３階エレベーター横（夏期プール管理室）,35.84584325,139.7886986,
埼玉県立草加かがやき特別支援学校,埼玉県草加市松原４－６－１,体育館１階トイレ横,35.84553884,139.7889989,
埼玉県立新座総合技術高等学校,埼玉県新座市新塚１－３－１,体育館,35.77879476,139.5848156,
埼玉県立嵐山郷,埼玉県比企郡嵐山町古里１８４８,７寮職員室,36.10741558,139.2999171,
埼玉県立嵐山郷,埼玉県比企郡嵐山町古里１８４８,８寮職員室,36.10738974,139.2995844,
埼玉県立嵐山郷,埼玉県比企郡嵐山町古里１８４８,１０寮職員室,36.10647097,139.3000191,
埼玉県庁,埼玉県さいたま市浦和区仲町３－５－８,危機管理防災センター　１階玄関横,35.85955848,139.6484311,
埼玉県立嵐山郷,埼玉県比企郡嵐山町古里１８４８,１１寮職員室,36.10648819,139.3000457,
埼玉県立嵐山郷,埼玉県比企郡嵐山町古里１８４８,１２寮職員室,36.10647957,139.299638,
埼玉県立嵐山郷,埼玉県比企郡嵐山町古里１８４８,１４寮職員室,36.10671763,139.3007646,
埼玉県立嵐山郷,埼玉県比企郡嵐山町古里１８４８,１５寮職員室,36.10673096,139.3007648,
埼玉県立嵐山郷,埼玉県比企郡嵐山町古里１８４８,機能訓練棟,36.10738092,139.3020144,
埼玉県立嵐山郷,埼玉県比企郡嵐山町古里１８４８,第１作業所,36.10738092,139.3020144,
埼玉県立嵐山郷,埼玉県比企郡嵐山町古里１８４８,管理棟受付,36.10647074,139.3016764,
埼玉県立越谷北高等学校,埼玉県越谷市大泊５００－１,事務室前玄関,35.93755983,139.7874841,
埼玉県立越谷東高等学校,埼玉県越谷市増林５６７０－１,２階エントランス,35.89361157,139.812819,
埼玉県立誠和福祉高等学校,埼玉県羽生市神戸７０６,管理棟２階職員室,36.137537,139.5623665,
熊谷スポーツ文化公園陸上競技場,埼玉県熊谷市上川上３００,管理事務所,36.16387245,139.4110231,
埼玉県浦和合同庁舎,埼玉県さいたま市浦和区北浦和５－６－５,別館１階ロビー,35.87403412,139.6397901,
自動車税事務所,埼玉県さいたま市大宮区下町３－８－３,窓口カウンター横,35.90454349,139.630683,
自動車税事務所　大宮支所,埼玉県さいたま市西区中釘２１５２,窓口カウンター横,35.94120722,139.5717237,
自動車税事務所　熊谷支所,埼玉県熊谷市御稜威ケ原７０１－５,事務室内（客溜側）,36.16257933,139.2999493,
自動車税事務所　所沢支所,埼玉県所沢市牛沼６９０－１,１階ロビー,35.79977732,139.4989317,
自動車税事務所　春日部支所,埼玉県春日部市増戸７５２－５,窓口カウンター,35.95513652,139.7279365,
埼玉県東部環境管理事務所,埼玉県北葛飾郡杉戸町清地５－４－１０,事務室内,36.02787831,139.7382146,
元荒川水循環センター,埼玉県桶川市小針領家９３９,管理本館４階中央監視室,36.02650981,139.5923599,
小山川水循環センター,埼玉県本庄市東五十子３８２－１,管理本館２階中央監視室,36.22771693,139.2164963,
古利根川水循環センター,埼玉県久喜市吉羽７７２－１,管理棟２階中央監視室,36.05838969,139.6904808,
埼玉県立浦和西高等学校,埼玉県さいたま市浦和区木崎３－１－１,ＨＲ棟１階トイレ入口,35.88935611,139.6540166,
埼玉県立小児医療センター,埼玉県さいたま市中央区新都心１－２,１２階スタッフエレベーターホール前,35.8912975,139.6314709,
埼玉県立小児医療センター,埼玉県さいたま市中央区新都心１－２,１１階スタッフエレベーターホール前,35.89138639,139.6316626,
埼玉県立小児医療センター,埼玉県さいたま市中央区新都心１－２,１０階スタッフエレベーターホール前,35.89152499,139.6319414,
埼玉県立小児医療センター,埼玉県さいたま市中央区新都心１－２,９階スタッフエレベーターホール前,35.89118558,139.6315668,
埼玉県立小児医療センター,埼玉県さいたま市中央区新都心１－２,６階講堂前,35.89118558,139.6315668,
埼玉県立小児医療センター,埼玉県さいたま市中央区新都心１－２,５階西エレベーターホール,35.89126974,139.6317479,
埼玉県立小児医療センター,埼玉県さいたま市中央区新都心１－２,３階整形外科受付前,35.89106671,139.6317915,
埼玉県立小児医療センター,埼玉県さいたま市中央区新都心１－２,２階外来待合,35.89122058,139.6318673,
埼玉県立小児医療センター,埼玉県さいたま市中央区新都心１－２,２階在宅支援相談室前,35.8913128,139.6322695,
埼玉県立小児医療センター,埼玉県さいたま市中央区新都心１－２,地下１階栄養部前廊下,35.89102367,139.6322695,
埼玉県立がんセンター,埼玉県北足立郡伊奈町小室７８０,放射線治療（ＣＴ操作室）,35.98449161,139.61728,
埼玉県立がんセンター,埼玉県北足立郡伊奈町小室７８０,放射線診断（一般撮影室）,35.98457827,139.6174339,
埼玉県立がんセンター,埼玉県北足立郡伊奈町小室７８０,放射線診断（ＣＴ操作室）,35.98463966,139.6175628,
埼玉県立がんセンター,埼玉県北足立郡伊奈町小室７８０,地下１階エレベーターホール,35.98471327,139.6177905,
埼玉県立がんセンター,埼玉県北足立郡伊奈町小室７８０,ホスピタルストリート,35.9847441,139.6178966,
埼玉県立がんセンター,埼玉県北足立郡伊奈町小室７８０,３階エレベーターホール,35.98483604,139.6181166,
埼玉県立がんセンター,埼玉県北足立郡伊奈町小室７８０,４階デイルーム,35.98486687,139.618238,
埼玉県立がんセンター,埼玉県北足立郡伊奈町小室７８０,４階コミュニティラウンジ,35.98424664,139.6174339,
埼玉県立がんセンター,埼玉県北足立郡伊奈町小室７８０,５階デイルーム,35.98435108,139.6176236,
埼玉県立がんセンター,埼玉県北足立郡伊奈町小室７８０,６階デイルーム,35.98442469,139.6177678,
埼玉県立がんセンター,埼玉県北足立郡伊奈町小室７８０,７階デイルーム,35.98462134,139.6180483,
埼玉県立がんセンター,埼玉県北足立郡伊奈町小室７８０,８階デイルーム,35.98453525,139.6182988,
埼玉県立がんセンター,埼玉県北足立郡伊奈町小室７８０,９階デイルーム,35.98427109,139.6177603,
埼玉県立がんセンター,埼玉県北足立郡伊奈町小室７８０,１０階デイルーム,35.98434498,139.6178664,
埼玉県立がんセンター,埼玉県北足立郡伊奈町小室７８０,臨床腫瘍研究所,35.98430194,139.6182988,
埼玉県立がんセンター,埼玉県北足立郡伊奈町小室７８０,防災センター前,35.98400112,139.6176767,
埼玉県立がんセンター,埼玉県北足立郡伊奈町小室７８０,１階エレベーターホール,35.9839828,139.6179725,
埼玉県立がんセンター,埼玉県北足立郡伊奈町小室７８０,２階エレベーターホール,35.98395197,139.6181319,
埼玉県立がんセンター,埼玉県北足立郡伊奈町小室７８０,内科系処置室,35.9844186,139.6185416,
埼玉県立がんセンター,埼玉県北足立郡伊奈町小室７８０,通院治療センター,35.98381088,139.6182686,
埼玉県立がんセンター,埼玉県北足立郡伊奈町小室７８０,ＲＩ（ＰＥＴ－ＣＴ操作室）,35.98408697,139.6185491,
埼玉県立がんセンター,埼玉県北足立郡伊奈町小室７８０,放射線治療（診察室）,35.98375561,139.6182608,
埼玉県立がんセンター,埼玉県北足立郡伊奈町小室７８０,放射線治療（小線源治療）,35.9842036,139.6178891,
埼玉県立がんセンター,埼玉県北足立郡伊奈町小室７８０,外科系処置室,35.98392141,139.6176842,
埼玉県立がんセンター,埼玉県北足立郡伊奈町小室７８０,放射線治療（アンギオ）,35.98409336,139.6185794,
埼玉県新三郷浄水場,埼玉県三郷市南蓮沼１,中央管理室（２階）,35.84646008,139.869707,
埼玉県水道整備事務所,埼玉県さいたま市桜区五関３８７－２,執務室１階ガラス棚,35.86666072,139.5960355,
埼玉県水道整備事務所　鴻巣駐在,埼玉県鴻巣市鴻巣８５０,１階右側執務室パソコンラック,36.06682136,139.5198369,
大宮第二公園,埼玉県さいたま市大宮区寿能町２－４０５,ギャラリー棟,35.91856235,139.6402488,
埼玉県西部地域振興ふれあい拠点施設（ウェスタ川越）,埼玉県川越市新宿町１－１７－１７,１階　管理事務室,35.9041428,139.4790117,
埼玉県立越谷南高等学校,埼玉県越谷市レイクタウン７－９,体育館管理室,35.87413118,139.8200503,
埼玉県立草加東高等学校,埼玉県草加市柿木町１１１０－１,２階職員室前,35.86529374,139.8263388,
環境整備センター,埼玉県大里郡寄居町三ケ山３６８,事務所１階受付及び巡回車内,36.09736872,139.2187408,
環境整備センター,埼玉県大里郡寄居町三ケ山３６８,現場公用車用,36.09739926,139.2185928,
埼玉県立大宮東高等学校,埼玉県さいたま市見沼区膝子５６７,第２体育館　１階玄関,35.92720572,139.6847355,
埼玉県立草加西高等学校,埼玉県草加市原町２－７－１,体育館２階体育教官室,35.84736325,139.7745861,
埼玉県立草加西高等学校　第２グラウンド,埼玉県川口市西立野４２－３,管理室,35.8556106,139.7520688,
埼玉スタジアム２００２公園,埼玉県さいたま市緑区美園２－１,救護室５階　Ａ５０１,35.90333012,139.7172945,
埼玉スタジアム２００２公園,埼玉県さいたま市緑区美園２－１,救護室５階　Ａ５０５,35.90366982,139.7176792,
埼玉スタジアム２００２公園,埼玉県さいたま市緑区美園２－１,南案内所,35.90216165,139.7175809,
埼玉スタジアム２００２公園,埼玉県さいたま市緑区美園２－１,北案内所,35.90389396,139.7175809,
こども動物自然公園,埼玉県東松山市岩殿５５４,こどもの城,35.99839355,139.375392,
こども動物自然公園,埼玉県東松山市岩殿５５４,ガゼボ休憩舎,35.99957146,139.3749281,
こども動物自然公園,埼玉県東松山市岩殿５５４,中央売店,35.9998667,139.3748534,
上尾運動公園水泳場,埼玉県上尾市日の出２,管理事務所１階,35.96801792,139.606978,
上尾運動公園水泳場,埼玉県上尾市日の出２,管理事務所１階,35.96828816,139.6067049,
上尾運動公園水泳場,埼玉県上尾市日の出２,救護室１階　,35.96783377,139.606978,
上尾運動公園運動場（陸上競技場）,埼玉県上尾市愛宕３－２８,陸上競技場管理事務所入口１階,35.96934429,139.6015198,
秋ヶ瀬公園管理事務所,埼玉県さいたま市桜区道場４－１７,スポーツ広場テニスＮｏ１６前トイレ,35.85145888,139.6084503,
しらこばと公園,埼玉県越谷市小曽川９８５,事務所（夏季：事務所）,35.91374648,139.74912,
しらこばと公園,埼玉県越谷市小曽川９８５,救護室（夏季：総合案内所）,35.91361732,139.7491731,
しらこばと公園,埼玉県越谷市小曽川９８５,救護室（夏季：造波プール）,35.91375259,139.74912,
しらこばと公園（２次区域）,埼玉県さいたま市岩槻区末田５９４,事務所,35.91433523,139.7465891,
所沢航空発祥記念館,埼玉県所沢市並木１－１３地内,エントランス,35.7990139,139.4717374,
羽生水郷公園,埼玉県羽生市三田ケ谷７５１－１,管理事務所,36.17321198,139.5976667,
羽生水郷公園,埼玉県羽生市三田ケ谷７５１－１,管理棟（カヌー受付所）,36.17210769,139.5989708,
久喜菖蒲公園,埼玉県久喜市河原井町７０,有料釣堀管理事務所,36.05589853,139.6474131,
権現堂公園（１号公園）,埼玉県久喜市小右衛門５０,管理事務所,36.10967315,139.7245288,
権現堂公園（１号公園）,埼玉県久喜市小右衛門５０,管理事務所,36.10967037,139.7245785,
権現堂公園（４号公園）,埼玉県幸手市内国府間８８７－３,職員詰所,36.09357987,139.7211075,
権現堂公園（４号公園）,埼玉県幸手市内国府間８８７－３,職員詰所,36.09369764,139.7212956,
秩父ミューズパーク管理事務所,埼玉県秩父郡小鹿野町長留２５１８,事務所受付横,35.98240623,139.0433216,
まつぶし緑の丘公園,埼玉県北葛飾郡松伏町大川戸２６０６－１,管理センター内,35.94392805,139.8099611,
埼玉県西部地域振興ふれあい拠点施設（ウェスタ川越）,埼玉県川越市新宿町１－１７－１7,５階　渡り通路,35.90414175,139.4790093,
埼玉県西部地域振興ふれあい拠点施設（ウェスタ川越）,埼玉県川越市新宿町１－１７－１７,４階　渡り通路,35.90414604,139.4790167,
埼玉県立上尾かしの木特別支援学校,埼玉県上尾市平塚１２８１－１,体育館教官室,35.98735896,139.6132702,
埼玉県立川口工業高等学校,埼玉県川口市南前川１－１０－１,管理棟２階渡り廊下,35.82775425,139.7089633,
埼玉県立坂戸西高等学校,埼玉県坂戸市坂戸市四日市場１０１,体育教官室,35.93398939,139.3529218,
埼玉県地域整備事務所,埼玉県さいたま市大宮区大成町１－５２８－１,事務室,35.90949908,139.6113694,
地方職員共済組合埼玉診療所,埼玉県さいたま市浦和区高砂３－１４－２１,地方職員共済組合埼玉診療所内科,35.85830443,139.6476078,
埼玉県警察本部交通部高速道路交通警察隊,埼玉県所沢市坂之下761-1,所沢分駐隊（事務室内）,35.80977931,139.5321982,
埼玉県住宅供給公社,埼玉県さいたま市浦和区仲町３－１２－１０,１階エントランス,35.85950151,139.6472253,
大宮支所,埼玉県さいたま市大宮区寿能町２－１３１,１階入口,35.9216178,139.635408,
埼玉県立川越女子高等学校,埼玉県川越市六軒町１－２３,体育館準備室,35.91530597,139.4785019,
埼玉県立大宮高等学校,埼玉県さいたま市大宮区天沼町２－３２３,南校舎１階保健室前廊下,35.9002497,139.6368648,
新河岸川水循環センター,埼玉県和光市新倉６－１－１,管理棟中央管理室,35.80624141,139.6165923,
富士見中継ポンプ場,埼玉県富士見市水子２３９４－１,事務室,35.84515426,139.5756642,
新河岸川上流水循環センター,埼玉県川越市大仙波1287,管理棟2階事務室,35.9047901,139.4948876,
新河岸川水循環センター,埼玉県和光市新倉６－１－１,汚泥棟事務室,35.80437185,139.6249975,
埼玉県立伊奈学園総合高等学校,埼玉県北足立郡伊奈町学園４－１－１,プール管理室,36.0154602,139.6121128,
埼玉県立戸田かけはし高等特別支援学校,埼玉県戸田市新曽１０９３－１,体育館棟１階エントランス,35.82002505,139.6650879,
埼玉県立戸田かけはし高等特別支援学校,埼玉県戸田市新曽１０９３－１,昇降口棟１階保健室,35.81983007,139.6651518,
埼玉県立戸田かけはし高等特別支援学校,埼玉県戸田市新曽１０９３－１,教室棟４階職員室,35.81962842,139.6647405,
埼玉県立大宮北特別支援学校,埼玉県さいたま市西区中釘２２９０－１,体育館入口,35.9432701,139.5741323,
埼玉県越谷児童相談所,埼玉県越谷市恩間４０２－１,相談所棟（１F）玄関,35.92455311,139.7699826,
県立久喜特別支援学校 白岡分校,埼玉県白岡市高岩２７５－１（県立白岡高校内）,（普通教室棟）分校保健室前,36.03208328,139.6762659,
埼玉県農業技術研究センター,埼玉県熊谷市須賀広７８４,搾乳牛舎,36.11056976,139.3528345,
埼玉県農業大学校,埼玉県熊谷市樋春２０１０,花き専攻棟,36.11174734,139.3560031,
埼玉県水質管理センター,埼玉県行田市小針１６３２,（１F）事務室入口,36.13575756,139.4960693,
埼玉県 柿木浄水場,埼玉県草加市柿木町１６２,管理事務所 入口,35.85972737,139.8336235,
埼玉県農林公園,埼玉県深谷市本田５７６８－１,管理事務所,36.1123536,139.288204,
埼玉県秩父高原牧場（彩の国ふれあい牧場）,埼玉県秩父郡東秩父村坂本２９５１,モーモーハウス事務室,36.05400671,139.157199,
埼玉県茶業研究所,埼玉県入間市上谷ヶ貫２４４－２,講堂,35.80883421,139.3460206,
