施設名,住所,設置場所,緯度,経度,利用可能時間
上尾運動公園運動場（体育館）,埼玉県上尾市愛宕３－２８,体育館アリーナ入口１階,35.96787644,139.6033338,
スポーツ総合センター,埼玉県上尾市東町３－１６７９,１階ロビー,35.97158838,139.6083038,
埼玉県立武道館,埼玉県上尾市日の出４－１８７７,武道館事務室,35.97034687,139.6089927,
埼玉県立武道館,埼玉県上尾市日の出４－１８７７,武道館主道場,35.97036048,139.6089927,
埼玉県県民活動総合センター,埼玉県北足立郡伊奈町内宿台６－２６,事務棟１階総合受付内,36.01968431,139.6069828,
彩の森入間公園,埼玉県入間市向陽台２丁目地内,管理センター,35.83727875,139.3984282,
秩父ミューズパーク音楽堂,埼玉県秩父市田村１３７７,事務所内,35.99716932,139.0549714,
加須はなさき公園,埼玉県加須市水深１７２２,管理事務所内救護室（夏季は従業員詰所）,36.10122411,139.6323542,
埼玉県花と緑の振興センター,埼玉県川口市安行１０１５,事務室,35.8485054,139.7562487,
埼玉会館,埼玉県さいたま市浦和区高砂３－１－４,会館管理棟入口警備員室,35.85754731,139.6525266,
埼玉県生活科学センター（彩の国くらしプラザ）,埼玉県川口市上青木３－１２－１８ ＳＫＩＰシティＡ１街区２階,彩の国くらしプラザ事務室カウンター横,35.82772926,139.7197324,
彩の国ビジュアルプラザ,埼玉県川口市上青木３－１２－６３,１階防災センター,35.82739599,139.7208334,
川越公園管理事務所,埼玉県川越市池辺８８０,救護室,35.91235031,139.4505774,
埼玉県自然学習センター,埼玉県北本市荒井５－２００,事務室,36.01220563,139.511191,
環境科学国際センター,埼玉県加須市上種足９１４,展示館受付,36.08510427,139.5603016,
埼玉県立さきたま史跡の博物館,埼玉県行田市埼玉４８３４,本館受付,36.1251594,139.4756755,
久喜菖蒲公園,埼玉県久喜市河原井町７０,公園管理事務所,36.05590492,139.6474054,
熊谷スポーツ文化公園ドーム,埼玉県熊谷市上川上３００,管理事務所,36.16631769,139.4095275,
熊谷スポーツ文化公園ラグビー場,埼玉県熊谷市上川上３００,管理事務所,36.16827477,139.4024158,
熊谷スポーツ文化公園陸上競技場,埼玉県熊谷市上川上３００,管理事務所,36.16398049,139.4109931,
熊谷スポーツ文化公園ドーム,埼玉県熊谷市上川上３００,管理事務所,36.16634352,139.4095348,
埼玉県防災学習センター,埼玉県鴻巣市袋３０,１階受付横,36.0948762,139.466715,
しらこばと公園,埼玉県越谷市小曽川９８５,救護室（夏季:救護室）,35.91379675,139.7491006,
埼玉県県民健康福祉村,埼玉県越谷市北後谷８２,１階事務所,35.88426393,139.7582296,
埼玉県県民健康福祉村,埼玉県越谷市北後谷８２,１階室内プール横事務所,35.88429726,139.7582399,
埼玉県立大学,埼玉県越谷市三野宮８２０,南棟１階メディアギャラリー(洗浄乾燥室付近壁面）,35.92988068,139.7560207,
埼玉県障害者交流センター,埼玉県さいたま市浦和区大原３－１０－１,健康チェックコーナー,35.89447423,139.6495753,
埼玉県障害者交流センター,埼玉県さいたま市浦和区大原３－１０－１,プール,35.89447463,139.649575,
埼玉県障害者交流センター,埼玉県さいたま市浦和区大原３－１０－１,健康チェックコーナー,35.89447525,139.6495753,
地方職員共済組合埼玉診療所,埼玉県さいたま市浦和区高砂３－１４－２１,内科診療室,35.85837748,139.6475676,
埼玉県立近代美術館,埼玉県さいたま市浦和区常盤９－３０－１,１階総合受付,35.86960526,139.6429611,
産業文化センター（大宮ソニックシティ）,埼玉県さいたま市大宮区桜木町１－７－５,１階南口防災センター,35.90529311,139.6198289,
産業文化センター（大宮ソニックシティ）,埼玉県さいたま市大宮区桜木町１－７－５,エントランス,35.90526922,139.6194697,
大宮公園事務所,埼玉県さいたま市大宮区高鼻町４,水泳場,35.9217926,139.6284005,
大宮公園事務所,埼玉県さいたま市大宮区高鼻町４,弓道場,35.92154708,139.6289752,
大宮公園事務所,埼玉県さいたま市大宮区高鼻町４,体育館,35.92079602,139.6277309,
大宮公園事務所,埼玉県さいたま市大宮区高鼻町４,野球場１階,35.91797064,139.6328145,
大宮公園事務所,埼玉県さいたま市大宮区高鼻町４,野球場２階,35.91797064,139.6328133,
大宮第二公園,埼玉県さいたま市大宮区寿能町２－４０５,管理棟,35.91828387,139.6403252,
大宮公園事務所,埼玉県さいたま市大宮区高鼻町４,事務所,35.91639608,139.631926,
大宮公園事務所,埼玉県さいたま市大宮区高鼻町４,双輪場救護室,35.91959161,139.6342657,
秋ヶ瀬公園管理事務所,埼玉県さいたま市桜区道場４－１７,管理事務所,35.84883936,139.6052896,
彩の国さいたま芸術劇場,埼玉県さいたま市中央区上峰３－１５－１,インフォメーションセンター,35.8771855,139.6218848,
埼玉県男女共同参画推進センター（Ｗｉｔｈ　Ｙｏｕさいたま）,埼玉県さいたま市中央区新都心２－２ホテルブリランテ武蔵野３階　,総合受付,35.89063568,139.6330464,
埼玉スタジアム２００２公園,埼玉県さいたま市緑区美園２－１,管理事務所,35.90306766,139.7176351,
埼玉スタジアム２００２公園,埼玉県さいたま市緑区美園２－１,クラブハウス,35.90306766,139.7176351,
埼玉スタジアム２００２公園,埼玉県さいたま市緑区美園２－１,救護室２階　Ａ２０１,35.90306766,139.7176351,
埼玉スタジアム２００２公園,埼玉県さいたま市緑区美園２－１,救護室２階　Ａ２０６,35.90306766,139.7176351,
埼玉スタジアム２００２公園,埼玉県さいたま市緑区美園２－１,救護室２階　Ａ２２０,35.90306766,139.7176351,
けやきひろば,埼玉県さいたま市中央区新都心１０,けやきひろば警備室,35.89328199,139.6310576,
さいたまスーパーアリーナ,埼玉県さいたま市中央区新都心８,アリーナ防災センター,35.89492375,139.6308408,
さいたまスーパーアリーナ,埼玉県さいたま市中央区新都心８,１階S1エントランストイレ横壁,35.8945499,139.6307656,
さいたまスーパーアリーナ,埼玉県さいたま市中央区新都心８,１階Ｓ２エントランス正面柱,35.8945499,139.6307656,
さいたまスーパーアリーナ,埼玉県さいたま市中央区新都心８,W１トイレ横壁,35.8945499,139.6307656,
さいたまスーパーアリーナ,埼玉県さいたま市中央区新都心８,２階Aゲート左側の壁,35.8945499,139.6307656,
さいたまスーパーアリーナ,埼玉県さいたま市中央区新都心８,２階Bゲート右側の壁,35.8945499,139.6307656,
さいたまスーパーアリーナ,埼玉県さいたま市中央区新都心８,２階北西ロッカー横壁,35.8945499,139.6307656,
さいたまスーパーアリーナ,埼玉県さいたま市中央区新都心８,２階MBショップ２０４入口横壁,35.8945499,139.6307656,
さいたまスーパーアリーナ,埼玉県さいたま市中央区新都心８,４階Nゲート正面コンコース壁,35.8945499,139.6307656,
所沢航空記念公園,埼玉県所沢市並木１－１３,事務所ロビー,35.79542039,139.4707232,
戸田公園,埼玉県戸田市戸田公園５－２７,管理事務所１階受付窓口,35.80183991,139.6769668,
羽生水郷公園,埼玉県羽生市三田ケ谷７５１－１,さいたま水族館　出札所,36.17310422,139.5979067,
こども動物自然公園,埼玉県東松山市岩殿５５４,管理事務所,36.00042745,139.3741806,
埼玉県平和資料館,埼玉県東松山市岩殿２４１－１１３,インフォメーションＢ１横,35.9986016,139.3656606,
みさと公園,埼玉県三郷市高州３－３６２,管理事務所,35.78683438,139.8729019,
吉見総合運動公園,埼玉県比企郡吉見町今泉１４１,管理事務所,36.05393946,139.4675858,
和光樹林公園,埼玉県和光市広沢３,管理事務所,35.77661604,139.6025877,
埼玉県総合リハビリテーションセンター,埼玉県上尾市西貝塚１４８－１,Ａ棟１階訓練待合ホール,35.93806179,139.5530801,
埼玉県総合リハビリテーションセンター,埼玉県上尾市西貝塚１４８－１,Ｃ棟１階体育館,35.93806179,139.5530801,
埼玉県立循環器・呼吸器病センター,埼玉県熊谷市板井１６９６,循環器外来待合ホール,36.11114335,139.3049271,
埼玉県立循環器・呼吸器病センター,埼玉県熊谷市板井１６９６,ＣＣＵ病棟内,36.11114335,139.3049271,
埼玉県立循環器・呼吸器病センター,埼玉県熊谷市板井１６９６,Ａ病棟１階入口横,36.11114335,139.3049271,
埼玉県立あさか向陽園　障害者歯科診療所,埼玉県朝霞市青葉台１－１０－６０,正面玄関,35.78991424,139.5913459,
埼玉県立嵐山郷,埼玉県比企郡嵐山町古里１８４８,診療棟待合ホール,36.10671318,139.3007607,
埼玉県立嵐山郷,埼玉県比企郡嵐山町古里１８４８,診療棟歯科受付,36.10672707,139.3007965,
埼玉県立嵐山郷,埼玉県比企郡嵐山町古里１８４８,１寮職員室,36.10671652,139.3007793,
埼玉県立嵐山郷,埼玉県比企郡嵐山町古里１８４８,５寮職員室,36.1067204,139.3007534,
埼玉県立嵐山郷,埼玉県比企郡嵐山町古里１８４８,９寮職員室,36.10671846,139.3007521,
埼玉県立嵐山郷,埼玉県比企郡嵐山町古里１８４８,１３寮職員室,36.10672374,139.3007648,
埼玉県立伊奈学園中学校,埼玉県北足立郡伊奈町学園４－１－１,職員室,36.01348211,139.6128939,
埼玉県立上尾高等学校,埼玉県上尾市浅間台１－６－１,第一校舎１階職員室,35.98417693,139.5762305,
埼玉県立上尾鷹の台高等学校,埼玉県上尾市原市２８００,管理・普通教室棟２階事務室前,35.97132266,139.6319699,
埼玉県立上尾橘高等学校,埼玉県上尾市平方２１８７－１,事務室入口前廊下,35.94722036,139.5487354,
埼玉県立上尾橘高等学校,埼玉県上尾市平方２１８７－１,体育館１階入り口正面,35.94701092,139.5479791,
埼玉県立上尾南高等学校,埼玉県上尾市中新井５８５,職員室２階,35.94687972,139.5854143,
埼玉県立上尾南高等学校,埼玉県上尾市中新井５８５,体育館１階管理室,35.94687972,139.5854143,
埼玉県立朝霞高等学校,埼玉県朝霞市幸町３－１３－６５,体育館管理室,35.78799025,139.5899375,
埼玉県立朝霞高等学校,埼玉県朝霞市幸町３－１３－６５,保健室前廊下,35.7879772,139.5899428,
埼玉県立朝霞西高等学校,埼玉県朝霞市脚折上ノ原２－１７,体育館２階入口前,35.79199646,139.5898346,
埼玉県立いずみ高等学校,埼玉県さいたま市中央区円阿弥７－４－１,事務室前廊下,35.8938914,139.6113928,
埼玉県立伊奈学園総合高等学校,埼玉県北足立郡伊奈町学園４－１－１,保健センター,36.01463618,139.6140443,
埼玉県立伊奈学園総合高等学校,埼玉県北足立郡伊奈町学園４－１－１,大体育館入口,36.01470558,139.6126817,
埼玉県立伊奈学園総合高等学校,埼玉県北足立郡伊奈町学園４－１－１,グラウンド体育倉庫,36.01470558,139.6126817,
埼玉県立伊奈学園総合高等学校,埼玉県北足立郡伊奈町学園４－１－１,事務局前玄関前,36.01461868,139.6140549,
埼玉県立豊岡高等学校,埼玉県入間市豊岡１－１５－１,体育館入口,35.83800678,139.390455,
埼玉県立入間向陽高等学校,埼玉県入間市向陽台１－１－１,保健室（１階）前廊下,35.8380597,139.3957593,
埼玉県立岩槻高等学校,埼玉県さいたま市岩槻区城南１－３－３８,職員玄関,35.94250396,139.7037785,
埼玉県立岩槻商業高等学校,埼玉県さいたま市岩槻区太田１－４－１,事務室隣（職員玄関）,35.95069058,139.7056258,
埼玉県立岩槻北陵高等学校,埼玉県さいたま市岩槻区慈恩寺１１７－２,事務室前（２階職員玄関前）,35.97767081,139.7136904,
埼玉県立浦和高等学校,埼玉県さいたま市浦和区領家５－３－３,管理棟１Ｆ玄関口,35.87813731,139.6515486,
埼玉県立浦和北高等学校,埼玉県さいたま市桜区五関５９５,体育館１階教官室,35.86685955,139.5947253,
埼玉県立浦和工業高等学校,埼玉県さいたま市桜区西堀５－１－１,管理棟１階,35.85378715,139.6262946,
埼玉県立浦和商業高等学校,埼玉県さいたま市南区白幡２－１９－３９,事務室１階受付カウンター横,35.84970413,139.6520142,
埼玉県立浦和第一女子高等学校,埼玉県さいたま市浦和区岸町３－８－４５,事務室入口横,35.85277499,139.6580261,
埼玉県立浦和西高等学校,埼玉県さいたま市浦和区木崎３－１－１,体育館入口,35.88907783,139.6548796,
埼玉県立浦和東高等学校,埼玉県さいたま市緑区寺山３６５,体育館１階入口横,35.90898976,139.7069246,
埼玉県立ふじみ野高等学校,埼玉県ふじみ野市大井１１５８－１,第１体育館管理室,35.84973978,139.5105718,
埼玉県立大宮高等学校,埼玉県さいたま市大宮区天沼町２－３２３,体育館体育教官室外側入口横,35.90046106,139.6369937,
埼玉県立大宮工業高等学校,埼玉県さいたま市北区本郷町１９７０,２階事務室受付横,35.94818738,139.6277884,
埼玉県立大宮光陵高等学校,埼玉県さいたま市西区中野林１４５,１階事務室前,35.89424161,139.5898932,
埼玉県立大宮商業高等学校,埼玉県さいたま市見沼区大和田町１－３５６,職員玄関,35.92796152,139.6452169,
埼玉県立大宮中央高等学校,埼玉県さいたま市北区櫛引町２－４９９－１,通信制課程事務局（Ａ棟）玄関受付横,35.91973345,139.6103419,
埼玉県立大宮東高等学校,埼玉県さいたま市見沼区膝子５６７,普通教室棟２階職員室,35.92687438,139.6852005,
埼玉県立大宮東高等学校,埼玉県さいたま市見沼区膝子５６７,第２体育館２階管理室,35.92688688,139.6852055,
埼玉県立大宮東高等学校,埼玉県さいたま市見沼区膝子５６７,特別教室棟１階保健室,35.92688633,139.6851769,
埼玉県立大宮南高等学校,埼玉県さいたま市西区植田谷本７９３,普通教室棟２階　事務室受付前,35.88811674,139.5896741,
埼玉県立大宮武蔵野高等学校,埼玉県さいたま市西区西遊馬１６０１,体育教官室,35.90940216,139.5603337,
埼玉県立小鹿野高等学校,埼玉県秩父郡小鹿野町小鹿野９６２－１,管理棟１階西側業務室内,36.02502352,138.9971814,
埼玉県立小川高等学校,埼玉県比企郡小川町大塚１１０５,正面玄関,36.05948777,139.2619115,
埼玉県立桶川高等学校,埼玉県桶川市坂田９４５,職員玄関,36.02018561,139.5748325,
埼玉県立桶川西高等学校,埼玉県桶川市川田谷１５３１－２,管理棟２階職員室前廊下,35.98417684,139.5315757,
埼玉県立越生高等学校,埼玉県入間郡越生町西和田６００,管理特別教室棟１階事務室前,35.97292195,139.3012552,
埼玉県立春日部高等学校,埼玉県春日部市粕壁５５３９,体育教官室,35.97927083,139.7416719,
埼玉県立春日部高等学校,埼玉県春日部市粕壁５５３９,管理棟１階保健室,35.97928389,139.7416794,
埼玉県立春日部工業高等学校,埼玉県春日部市梅田本町１－１－１,事務室,35.9900839,139.746118,
埼玉県立春日部女子高等学校,埼玉県春日部市粕壁東６－１－１,職員玄関,35.97952593,139.7669747,
埼玉県立春日部東高等学校,埼玉県春日部市樋籠３６３,体育教官室,35.98872133,139.7686692,
埼玉県立春日部東高等学校,埼玉県春日部市樋籠３６３,２階事務室前玄関,35.98871244,139.7686745,
埼玉県立川口高等学校,埼玉県川口市新井宿諏訪山９６３,管理棟１階廊下応接室前,35.83958295,139.7309587,
埼玉県立川口高等学校,埼玉県川口市新井宿諏訪山９６３,管理棟１階廊下応接室前,35.83958267,139.7309654,
埼玉県立川口北高等学校,埼玉県川口市木曽呂１４７７,警備員室（事務室脇の部屋）,35.85926807,139.7145266,
埼玉県立川口工業高等学校,埼玉県川口市南前川１－１０－１,体育館,35.82804808,139.7081198,
埼玉県立川口工業高等学校,埼玉県川口市南前川１－１０－１,事務室,35.82804364,139.7081306,
埼玉県立川口青陵高等学校,埼玉県川口市神戸東５２０－１,保健室前,35.85401021,139.7307546,
埼玉県立川口東高等学校,埼玉県川口市長蔵３－１－１,管理棟２階　職員室前,35.86210789,139.7610956,
埼玉県立川越高等学校,埼玉県川越市郭町２－６,事務室１階受付,35.92379421,139.48984,
埼玉県立川越工業高等学校,埼玉県川越市西小仙波２－２８－１,１階事務室受付カウンター上,35.91301923,139.4869448,
埼玉県立川越女子高等学校,埼玉県川越市六軒町１－２３,管理棟１階事務室前入口,35.915619,139.4788552,
埼玉県立川越総合高等学校,埼玉県川越市小仙波町５－１４,管理棟１階職員・来客用玄関,35.91571627,139.4914013,
埼玉県立川越西高等学校,埼玉県川越市笠幡２４８８－１,１階保健室前,35.91107006,139.3955213,
埼玉県立川越西高等学校,埼玉県川越市笠幡２４８８－１,体育館２階管理室,35.91107423,139.3955213,
埼玉県立川越初雁高等学校,埼玉県川越市砂新田２５６４,体育館,35.87803822,139.4884822,
埼玉県立川越南高等学校,埼玉県川越市南大塚１－２１－１,体育館教官室入口横,35.89809444,139.4525312,
埼玉県立川越南高等学校,埼玉県川越市南大塚１－２１－１,管理棟１階保健室前廊下,35.89808583,139.4525364,
埼玉県立北本高等学校,埼玉県北本市古市場１－１５２,管理棟１階保健室,36.04424855,139.5476905,
埼玉県立久喜高等学校,埼玉県久喜市本町３－１２－１,１階入口左角,36.06649233,139.6679773,
埼玉県立久喜工業高等学校,埼玉県久喜市野久喜４７４,管理棟１階保健室前,36.07151446,139.6856798,
埼玉県立久喜北陽高等学校,埼玉県久喜市久喜本８３７－１,体育館１階廊下,36.07778536,139.6629273,
埼玉県立熊谷高等学校,埼玉県熊谷市大原１－９－１,職員玄関前,36.15411964,139.3792831,
埼玉県立熊谷高等学校,埼玉県熊谷市大原１－９－１,体育館玄関,36.1541152,139.3792876,
埼玉県立熊谷工業高等学校,埼玉県熊谷市小島８２０,体育館入り口,36.15686866,139.3543963,
埼玉県立熊谷工業高等学校,埼玉県熊谷市小島８２０,事務室前（玄関）,36.15687477,139.3543599,
埼玉県立熊谷商業高等学校,埼玉県熊谷市広瀬８００,保健室,36.14931456,139.3560634,
埼玉県立熊谷女子高等学校,埼玉県熊谷市末広２－１３１,管理棟１階保健室前,36.1443161,139.3920605,
埼玉県立熊谷西高等学校,埼玉県熊谷市三ヶ尻２０６６,体育準備室,36.1648952,139.3318429,
埼玉県立熊谷西高等学校,埼玉県熊谷市三ヶ尻２０６６,事務室,36.16490965,139.3318145,
埼玉県立熊谷農業高等学校,埼玉県熊谷市大原３－３－１,管理棟１階保健室前廊下,36.15461954,139.3777274,
埼玉県立栗橋北彩高等学校,埼玉県久喜市伊坂１,事務室前　,36.13220654,139.68725,
埼玉県立芸術総合高等学校,埼玉県所沢市三ヶ島２－６９５－１,職員玄関事務室前受付窓口横,35.78705903,139.4050725,
埼玉県立鴻巣高等学校,埼玉県鴻巣市大間１０２０,玄関,36.05982635,139.500716,
埼玉県立鴻巣女子高等学校,埼玉県鴻巣市天神１－１－７２,１階職員室玄関,36.06034399,139.5181979,
埼玉県立越ヶ谷高等学校,埼玉県越谷市越ヶ谷２７８８－１,職員玄関事務室窓口横,35.89882652,139.7913415,
埼玉県立越谷北高等学校,埼玉県越谷市大泊５００－１,体育館入り口,35.93754039,139.7875208,
埼玉県立越谷総合技術高等学校,埼玉県越谷市谷中町３－１００－１,事務室受付横,35.88416451,139.7688584,
埼玉県立越谷西高等学校,埼玉県越谷市野島４６０－１,校舎内２階職員玄関内,35.91668446,139.7486224,
埼玉県立越谷西高等学校,埼玉県越谷市野島４６０－１,校舎内２階体育館入口,35.91667169,139.7486088,
埼玉県立越谷東高等学校,埼玉県越谷市増林荒川堤外５６７０－１,２階職員室内,35.89362324,139.812831,
埼玉県立越谷南高等学校,埼玉県越谷市レイクタウン７－９,管理棟１階職員玄関内　入口脇,35.87391316,139.8204511,
埼玉県立児玉高等学校,埼玉県本庄市児玉町八幡山４１０,管理・ＨＲ棟１階自動販売機隣（外側）,36.19544514,139.1269192,
埼玉県立児玉白楊高等学校,埼玉県本庄市児玉町金屋９８０,管理棟１階東側玄関先警備室,36.1878597,139.1196829,
埼玉県立坂戸高等学校,埼玉県坂戸市上吉田５８６,管理棟１階保健室前廊下,35.98219552,139.4012605,
埼玉県立坂戸西高等学校,埼玉県坂戸市四日市場１０１,普通教室棟2階事務室前,35.93411687,139.3527385,
埼玉県立幸手桜高等学校,埼玉県幸手市北１－１７－５９,管理棟１階事務室前玄関,36.0860476,139.7186744,
埼玉県立狭山緑陽高等学校,埼玉県狭山市広瀬東４－３－１,管理棟１階事務室前（職員下足箱脇）,35.86454172,139.3963215,
埼玉県立狭山経済高等学校,埼玉県狭山市稲荷山２－６－１,普通教室棟１階職員室東側出入口,35.84220615,139.3947739,
埼玉県立狭山工業高等学校,埼玉県狭山市富士見２－５－１,管理棟１階事務室窓口脇,35.84865526,139.4198751,
埼玉県立狭山清陵高等学校,埼玉県狭山市上奥富３４－３,２階職員室前,35.87403643,139.4252936,
埼玉県立志木高等学校,埼玉県志木市上宗岡１－１－１,管理棟職員玄関横１階事務室前,35.84101264,139.5805226,
埼玉県立蓮田松韻高等学校,埼玉県蓮田市黒浜４０８８,管理棟１階事務室前,36.00056939,139.6744534,
埼玉県立庄和高等学校,埼玉県春日部市金崎５８３,２階受付下足箱横,35.99194752,139.8054437,
埼玉県立白岡高等学校,埼玉県白岡市高岩２７５－１,体育館管理室,36.03217393,139.6763905,
埼玉県立進修館高等学校,埼玉県行田市長野１３２０,西管理棟玄関（西１号館）,36.15116259,139.4661983,
埼玉県立杉戸高等学校,埼玉県北葛飾郡杉戸町清地１-１-３６,２階玄関脇の鍵保管庫,36.02853585,139.7322509,
埼玉県立杉戸農業高等学校,埼玉県北葛飾郡杉戸町堤根１６８４－１,１号館（管理棟）１階事務室横,36.02401404,139.7489164,
埼玉県立草加高等学校,埼玉県草加市青柳５－３－１,体育館１階体育教官室,35.85252981,139.8128163,
埼玉県立草加高等学校,埼玉県草加市青柳５－３－１,南校舎１階保健室,35.85252537,139.8128107,
埼玉県立草加西高等学校,埼玉県草加市原町２－７－１,管理棟（１F）保健室前,35.84694221,139.7741442,
埼玉県立草加東高等学校,埼玉県草加市柿木町１１１０－１,体育館１階外,35.86557065,139.8261229,
埼玉県立草加南高等学校,埼玉県草加市柳島町６６,警備室,35.81804192,139.7883178,
埼玉県立秩父農工科学高等学校,埼玉県秩父市大野原２０００,管理棟玄関内　事務室受付口,36.02240241,139.0909676,
埼玉県立秩父農工科学高等学校,埼玉県秩父市大野原２０００,体育館玄関内,36.02241102,139.0909676,
埼玉県立秩父高等学校,埼玉県秩父市上町２－２３－４５,玄関内旧警備員室,35.99256204,139.0752251,
埼玉県立鶴ヶ島清風高等学校,埼玉県鶴ヶ島市高倉９４６－１,職員室,35.93193589,139.3793858,
埼玉県立常盤高等学校,埼玉県さいたま市桜区上大久保５１９－１,体育館,35.8707221,139.6129345,
埼玉県立常盤高等学校,埼玉県さいたま市桜区上大久保５１９－１,事務室前,35.87070655,139.612937,
埼玉県立所沢高等学校,埼玉県所沢市久米１２３４,全日制職員室入口の壁面,35.78501795,139.4603248,
埼玉県立所沢北高等学校,埼玉県所沢市並木５－４,玄関（事務室前）,35.81151781,139.4625338,
埼玉県立所沢商業高等学校,埼玉県所沢市林２－８８,管理棟１階　受付室前,35.80154644,139.4005381,
埼玉県立所沢中央高等学校,埼玉県所沢市並木８－２,体育館２階　体育準備室,35.81161866,139.4740417,
埼玉県立所沢中央高等学校,埼玉県所沢市並木８－２,１階事務室前,35.81162185,139.4740252,
埼玉県立所沢西高等学校,埼玉県所沢市北野新町２－５－１１,職員玄関,35.80133412,139.4272014,
埼玉県立戸田翔陽高等学校,埼玉県戸田市新曽１０９３,１階事務室受付横,35.81901988,139.6649524,
埼玉県立豊岡高等学校,埼玉県入間市豊岡１－１５－１,１号館１階玄関横,35.83797207,139.3904547,
埼玉県立滑川総合高等学校,埼玉県比企郡滑川町月の輪４－１８－２６,体育管理室,36.04314227,139.340149,
埼玉県立南稜高等学校,埼玉県戸田市美女木４－２３－４,２階職員室,35.82412555,139.6490885,
埼玉県立新座高等学校,埼玉県新座市池田１－１－２,職員室,35.77552067,139.5738961,
埼玉県立新座柳瀬高等学校,埼玉県新座市大和田４－１２－１,大会議室前,35.81596051,139.5513625,
埼玉県立新座総合技術高等学校,埼玉県新座市新塚１－３－１,職員玄関,35.77879476,139.5848164,
埼玉県立蓮田松韻高等学校,埼玉県蓮田市黒浜４０８８,体育教官室,36.00056939,139.6744778,
埼玉県立鳩ヶ谷高等学校,埼玉県川口市里２２５－１,保健室前,35.8373828,139.7264887,
埼玉県立鳩山高等学校,埼玉県比企郡鳩山町松ヶ丘４－１－２,職員室東側入口,35.99217383,139.3490826,
埼玉県立羽生高等学校,埼玉県羽生市加羽ヶ崎３０３－１,管理棟１階玄関　受付前,36.16176067,139.5423555,
埼玉県立羽生実業高等学校,埼玉県羽生市羽生３２３,職員室,36.178019,139.5281386,
埼玉県立羽生第一高等学校,埼玉県羽生市下岩瀬１５３,体育教官室,36.16067998,139.532722,
埼玉県立羽生第一高等学校,埼玉県羽生市下岩瀬１５３,職員玄関,36.16067998,139.532722,
埼玉県立飯能高等学校,埼玉県飯能市本町１７－１３,管理棟１階事務室前玄関,35.85838813,139.3188458,
埼玉県立飯能南高等学校,埼玉県飯能市阿須２９８－２,職員室,35.83604622,139.3298525,
埼玉県立日高高等学校,埼玉県日高市旭ヶ丘８０６,職員室,35.90857991,139.3687121,
埼玉県立深谷高等学校,埼玉県深谷市宿根３１５,職員玄関,36.20245891,139.2663728,
埼玉県立深谷商業高等学校,埼玉県深谷市原郷８０,事務室,36.1974671,139.2914878,
埼玉県立深谷第一高等学校,埼玉県深谷市常盤町２１－１,管理棟１階玄関東側壁に取付,36.19548719,139.2969738,
埼玉県立吹上秋桜高等学校,埼玉県鴻巣市前砂９０７－１,普通教室棟２階事務室,36.08641466,139.4667848,
埼玉県立富士見高等学校,埼玉県富士見市上南畑９５０,体育教官室,35.86423593,139.562579,
埼玉県立不動岡高等学校,埼玉県加須市不動岡１－７－４５,小会議室,36.13295222,139.5923166,
埼玉県立不動岡高等学校,埼玉県加須市不動岡１－７－４５,体育研究室,36.13297111,139.5923475,
埼玉県立誠和福祉高等学校,埼玉県羽生市神戸７０６,管理棟１階保健室前,36.13750562,139.5623829,
埼玉県立本庄高等学校,埼玉県本庄市柏１－４－１,体育館入り口壁面,36.23381795,139.1764767,
埼玉県立松伏高等学校,埼玉県北葛飾郡松伏町ゆめみ野東２－７－１,普通教室兼管理棟２階職員室前,35.92451883,139.8297797,
埼玉県立松山高等学校,埼玉県東松山市松山町１－６－１０,管理棟１階保健室前,36.04542213,139.3963555,
埼玉県立松山高等学校,埼玉県東松山市松山町１－６－１０,体育館,36.04541963,139.3963525,
埼玉県立松山女子高等学校,埼玉県東松山市和泉町２－２２,管理棟１階保健室前廊下,36.03355148,139.394662,
埼玉県立三郷高等学校,埼玉県三郷市花和田６２０－１,管理棟２階職員室,35.83010804,139.8698432,
埼玉県立三郷高等学校,埼玉県三郷市花和田６２０－１,管理棟２階職員室,35.83008276,139.8698529,
埼玉県立三郷北高等学校,埼玉県三郷市大広戸８０８,事務室窓口前（職員玄関入口奥）,35.84302979,139.8755475,
埼玉県立三郷工業技術高等学校,埼玉県三郷市彦成３－３２５,体育館２階入口,35.85221163,139.8582674,
埼玉県立皆野高等学校,埼玉県秩父郡皆野町大渕１９－１,本館１階事務室前,36.07699479,139.0892192,
埼玉県立宮代高等学校,埼玉県南埼玉郡宮代町東６１１,体育館１階廊下,36.00555484,139.7322983,
埼玉県立妻沼高等学校,埼玉県熊谷市弥藤吾４８０,校舎２階事務室前廊下,36.21594965,139.3819518,
埼玉県立八潮高等学校,埼玉県八潮市鶴ヶ曽根６５０,（体育館）玄関,35.83059842,139.8347306,
埼玉県立八潮南高等学校,埼玉県八潮市南川崎根通５１９－１,１階事務室前,35.81441032,139.8582301,
埼玉県立吉川美南高等学校,埼玉県吉川市高久６００,管理棟１階保健室,35.87428267,139.8653757,
埼玉県立与野高等学校,埼玉県さいたま市中央区本町西２－８－１,保健室前通路,35.88478206,139.6185831,
埼玉県立寄居城北高等学校,埼玉県大里郡寄居町桜沢２６０１,体育館（準備室）,36.13116738,139.2079646,
埼玉県立寄居城北高等学校,埼玉県大里郡寄居町桜沢２６０１,事務室,36.13117376,139.2079673,
埼玉県立和光高等学校,埼玉県和光市新倉３－２２－１,体育館管理室,35.79717136,139.6284842,
埼玉県立和光国際高等学校,埼玉県和光市広沢４－１,生徒玄関（中側）,35.77804814,139.6040895,
埼玉県立鷲宮高等学校,埼玉県久喜市中妻１０２０,体育館　体育教官室内,36.09028269,139.6469768,
埼玉県立蕨高等学校,埼玉県蕨市北町５－３－８,Ａ棟１階事務室受付横,35.83288718,139.6741824,
埼玉県立特別支援学校塙保己一学園,埼玉県川越市笠幡８５－１,職員玄関,35.90848297,139.4207415,
埼玉県立特別支援学校大宮ろう学園,埼玉県さいたま市北区植竹町２－６８,保健室前廊下,35.93149616,139.6259092,
埼玉県立特別支援学校坂戸ろう学園,埼玉県坂戸市鎌倉町１４－１,１階玄関前廊下,35.96654489,139.4053544,
埼玉県立熊谷特別支援学校,埼玉県熊谷市川原明戸６０５,保健室入口,36.14100281,139.3176964,
埼玉県立蓮田特別支援学校,埼玉県蓮田市黒浜４０８８－４,１階保健室入口の廊下壁面,35.99867071,139.6740885,
埼玉県立川越特別支援学校,埼玉県川越市古谷上２６９０－１,管理棟２階職員・来客用玄関,35.92008639,139.5245164,
埼玉県立越谷特別支援学校,埼玉県越谷市船渡５００,管理棟１階保健室,35.93248645,139.7954328,
埼玉県立和光特別支援学校,埼玉県和光市広沢４－３,職員玄関内,35.77868635,139.6021833,
埼玉県立和光南特別支援学校,埼玉県和光市広沢４－５,職員玄関,35.77910264,139.6004145,
埼玉県立行田特別支援学校,埼玉県行田市長野４２３５,職員玄関,36.13366251,139.472103,
埼玉県立春日部特別支援学校,埼玉県春日部市八丁目７７６－１,高等部棟２階　事務室前　廊下,35.98992515,139.7607679,
埼玉県立川口特別支援学校,埼玉県川口市赤井１２３４,保健室,35.83335834,139.7505421,
埼玉県立秩父特別支援学校,埼玉県秩父市大宮５６７６－１,管理棟１階保健室,36.00578563,139.0993059,
埼玉県立所沢特別支援学校,埼玉県所沢市中富南１－１８０２－７,事務室内受付横,35.80934575,139.4907887,
埼玉県立三郷特別支援学校,埼玉県三郷市駒形５６,１階保健室,35.84814557,139.863756,
埼玉県立本庄特別支援学校,埼玉県本庄市栗崎８２８,保健室,36.21082474,139.1875578,
埼玉県立上尾特別支援学校,埼玉県上尾市東町３－２００９－３,Ａ棟１階事務室窓口左側壁面,35.97609582,139.6043951,
埼玉県立東松山特別支援学校,埼玉県東松山市野田１３０６－１,職員用玄関そばのエレベーター前,36.05337344,139.3857922,
埼玉県立狭山特別支援学校,埼玉県狭山市笹井２９５８,事務室,35.84529064,139.3678341,
埼玉県立浦和特別支援学校,埼玉県さいたま市緑区大崎５８,保健室,35.88220607,139.7156497,
埼玉県立岩槻特別支援学校,埼玉県さいたま市岩槻区馬込２４２６－１,１階保健室,35.96854058,139.6566259,
埼玉県立日高特別支援学校,埼玉県日高市高富５９－１,職員室,35.88128129,139.3882029,
埼玉県立久喜特別支援学校,埼玉県久喜市上清久１１００,保健室,36.07647455,139.6478423,
埼玉県立大宮北特別支援学校,埼玉県さいたま市西区中釘後谷２２９０－１,（１F）保健室前廊下,35.9432701,139.5741323,
埼玉県立越谷西特別支援学校,埼玉県越谷市西新井西前８５０－１,南校舎２階事務室,35.88937405,139.7532065,
埼玉県立宮代特別支援学校,埼玉県南埼玉郡宮代町金原６３６－１,保健室,36.01183053,139.7120125,
埼玉県立宮代特別支援学校,埼玉県南埼玉郡宮代町金原６３６－１,調理・被服準備室,36.01183053,139.7120125,
埼玉県立騎西特別支援学校,埼玉県加須市上種足四番８８８－１,職員室前廊下,36.08429849,139.5591309,
埼玉県立毛呂山特別支援学校,埼玉県入間郡毛呂山町川角１０２４－１,事務室,35.95771173,139.3431667,
埼玉県立川島ひばりが丘特別支援学校,埼玉県比企郡川島町伊草南向野７８０,１階職員室,35.96606489,139.4860169,
埼玉県立特別支援学校 さいたま桜高等学園,埼玉県さいたま市桜区上大久保５１９－７,（１F）玄関エレベーター前,35.86999633,139.6119373,
埼玉県立川の博物館,埼玉県大里郡寄居町小園３９,本館受付前,36.11572971,139.2195045,
埼玉県立八潮高等学校,埼玉県八潮市鶴ヶ曽根６５０,１階管理棟,35.83061342,139.8347017,
埼玉県庁,埼玉県さいたま市浦和区高砂３－１５－１,本庁舎１階　南玄関,35.85700406,139.6490578,
埼玉県東松山保健所,埼玉県東松山市若松町２－６－４５,事務室,36.03026646,139.4110788,
そうか光生園,埼玉県草加市柿木町１２１５－１,医務室,35.86584666,139.8236445,
皆光園,埼玉県深谷市人見１９９８,歯科診療室,36.16185108,139.2582862,
埼玉県立特別支援学校坂戸ろう学園,埼玉県坂戸市鎌倉町１４－１,寄宿舎　職員室,35.96654489,139.4053544,
埼玉県立特別支援学校羽生ふじ高等学園,埼玉県羽生市下羽生３２０－１,１階職員玄関受付横,36.16926619,139.5520114,
埼玉県立特別支援学校大宮ろう学園,埼玉県さいたま市北区植竹町２－６８,寄宿舎　事務室,35.93149616,139.6259092,
大宮公園事務所,埼玉県さいたま市大宮区高鼻町４,小動物園,35.91864889,139.6322414,
埼玉県社会福祉総合センター（彩の国すこやかプラザ）,埼玉県さいたま市浦和区針ケ谷４－２－６５,１階エントランス,35.87891519,139.6380514,
埼玉県吉見浄水場,埼玉県比企郡吉見町大和田１９８,中央管理室（２Ｆ）,36.03373981,139.478236,
埼玉県行田浄水場,埼玉県行田市小針１６３２,管理本館２F　事務室入口横,36.13559263,139.4949401,
埼玉県庄和浄水場,埼玉県春日部市新宿新田１００,管理本館２F　中央管理室,35.96837191,139.8286352,
埼玉県大久保浄水場,埼玉県さいたま市桜区宿６１８,中央本館１Ｆ事務室,35.87469969,139.5913764,
埼玉県森林科学館,埼玉県秩父市中津川４４７,彩の国ふれあいの森管理事務所入口,35.99450706,138.8006895,
埼玉県創業・ベンチャー支援センター,埼玉県さいたま市中央区上落合２－３－２,新都心ビジネス交流プラザ１階,35.89057804,139.6278679,
埼玉県立進修館高等学校,埼玉県行田市長野１３２０,東１号館　玄関,36.15118231,139.4661822,
埼玉県立川越特別支援学校　川越たかしな分校,埼玉県川越市砂新田２５６４,１階保健室前,35.87787797,139.4887075,
埼玉県立大宮北特別支援学校　さいたま西分校,埼玉県さいたま市西区西遊馬１６０１,校内,35.90928773,139.560226,
埼玉県立東松山特別支援学校こどもの心のケアハウス嵐山学園内教室,埼玉県比企郡嵐山町菅谷東原２６４－１,校内　職員室,36.03677681,139.3274496,
埼玉県立八潮南高等学校,埼玉県八潮市南川崎根通５１９－１,体育館１階　入口付近（屋内）,35.81440921,139.8582276,
加須はなさき公園,埼玉県加須市水深１７２２,管理執務室（夏季プール期間は中央監視塔）,36.10123383,139.632349,
埼玉県立大学,埼玉県越谷市三野宮８２０,北棟１階メディアギャラリー（看護学科スタッフルーム１　付近壁面）,35.92997204,139.7552588,
所沢航空記念公園,埼玉県所沢市並木１－１３,テニス受付,35.79542428,139.4707193,
所沢航空記念公園,埼玉県所沢市並木１－１３,茶室　彩翔亭,35.79729964,139.4711592,
埼玉県立誠和福祉高等学校,埼玉県羽生市神戸７０６,体育館,36.13750562,139.5623829,
埼玉県立滑川総合高等学校,埼玉県比企郡滑川町月の輪４－１８－２６,職員室前（普通教室棟２階）,36.04315976,139.340149,
埼玉県庁,埼玉県さいたま市浦和区高砂３－１５－１,第２庁舎　１階北側玄関,35.85871414,139.6487691,
埼玉県立春日部工業高等学校,埼玉県春日部市梅田本町１－１－１,体育館管理室,35.99008612,139.7461122,
彩の国さいたま人づくり広域連合　自治人材開発センター,埼玉県さいたま市北区土呂町２－２４－１,１階　階段横,35.92930771,139.6331298,
埼玉県立大学,埼玉県越谷市三野宮８２０,体育館１階入口（事務室窓口壁面）,35.92901189,139.7560852,
埼玉県立大滝げんきプラザ,埼玉県秩父市大滝５９４４－２,事務室,35.94927482,138.9003635,
埼玉県立越ヶ谷高等学校,埼玉県越谷市越ケ谷２７８８－１,体育館入口フロア内,35.89882652,139.7913415,
埼玉県立狭山工業高等学校,埼玉県狭山市富士見２－５－１,実習棟Ｂ棟　機械科管理室　前室,35.84864831,139.4198629,
埼玉県立狭山工業高等学校,埼玉県狭山市富士見２－５－１,体育館階段,35.84865276,139.4198573,
埼玉県庁,埼玉県さいたま市浦和区高砂３－１５－１,県議会議事堂　１階玄関ホール,35.85730873,139.6481351,
埼玉県立深谷高等学校,埼玉県深谷市宿根３１５,体育館（体育教官室）,36.20246835,139.2663344,
埼玉県立神川げんきプラザ,埼玉県児玉郡神川町池田７５６,事務室,36.18889629,139.0796877,
埼玉県立自然の博物館,埼玉県秩父郡長瀞町長瀞１４１７－１,１階ロビー自動ドア左側,36.08748126,139.1161081,
埼玉県中央児童相談所,埼玉県上尾市上尾村１２４２－１,相談所１階事務室内,35.98306164,139.5978981,
埼玉県南児童相談所,埼玉県川口市芝下１－１－５６,一時保護所事務室内,35.83522178,139.7000427,
埼玉県川越児童相談所,埼玉県川越市宮元町３３－１,相談所１階事務室内,35.93162065,139.4833827,
埼玉県所沢児童相談所,埼玉県所沢市並木１－９－２,相談所１階事務室内,35.7997744,139.4727484,
埼玉県熊谷児童相談所,埼玉県熊谷市箱田５－１３－１,相談所（２F）事務室内,36.15106284,139.3924274,
埼玉県越谷児童相談所,埼玉県越谷市恩間４０２－１,一時保護所棟（１F）面談室前,35.92479293,139.7699182,
浦和警察署,埼玉県さいたま市浦和区常盤４－１１－２１,庁舎１階受付,35.86201095,139.64708,
浦和東警察署,埼玉県さいたま市緑区東浦和７－４２－１,庁舎１階受付,35.8727998,139.7013632,
浦和西警察署,埼玉県さいたま市中央区上峰３－４－１,庁舎１階受付,35.87271542,139.6205271,
大宮警察署,埼玉県さいたま市大宮区北袋町１－１９７－７,庁舎１階受付,35.89317592,139.6423022,
大宮東警察署,埼玉県さいたま市見沼区風渡野３５－１,庁舎１階受付,35.93655579,139.6747232,
大宮西警察署,埼玉県さいたま市西区三橋６－６４５,庁舎１階受付,35.91785624,139.5925171,
蕨警察署,埼玉県蕨市錦町１－１２－２１,庁舎１階受付,35.82038873,139.67942,
川口警察署,埼玉県川口市西青木３－２－４,庁舎１階受付,35.81763791,139.7099189,
武南警察署,埼玉県川口市辻１０１０－２,庁舎１階受付,35.82974836,139.7360695,
朝霞警察署,埼玉県朝霞市幸町２－６－９,庁舎１階受付,35.78967081,139.5865769,
新座警察署,埼玉県新座市野火止７－１－３８,庁舎１階受付,35.79812656,139.567171,
草加警察署,埼玉県草加市花栗３－２－２３,庁舎１階受付,35.83693344,139.7895836,
上尾警察署,埼玉県上尾市本町５－１－１,庁舎１階受付,35.98028914,139.5902139,
鴻巣警察署,埼玉県鴻巣市東４－１－３,庁舎１階受付,36.06395829,139.5175739,
川越警察署,埼玉県川越市大仙波４１０－１,庁舎１階受付,35.91179804,139.4994958,
東入間警察署,埼玉県ふじみ野市うれし野１－４－１,庁舎１階受付,35.8550494,139.5188639,
所沢警察署,埼玉県所沢市並木１－６－１,庁舎１階受付,35.80037402,139.4715082,
狭山警察署,埼玉県狭山市稲荷山２－５－１,庁舎１階受付,35.84298025,139.3958327,
西入間警察署,埼玉県坂戸市関間２－４－１７,庁舎１階受付,35.95328898,139.3983683,
飯能警察署,埼玉県飯能市双柳５３１,庁舎１階受付,35.85831608,139.3354791,
東松山警察署,埼玉県東松山市上野本１１１７－１,庁舎１階受付,36.02351398,139.4040274,
小川警察署,埼玉県比企郡小川町小川３４４,庁舎１階受付,36.05479284,139.2655211,
秩父警察署,埼玉県秩父市上宮地町２９－２,庁舎１階受付,36.00114897,139.0904377,
小鹿野警察署,埼玉県秩父郡小鹿野町小鹿野２８１６－１,庁舎１階受付,36.01622881,139.0125223,
本庄警察署,埼玉県本庄市本庄４－２－７,庁舎１階受付,36.24509981,139.1902587,
児玉警察署,埼玉県本庄市児玉町児玉１４７０－１,庁舎１階受付,36.18573057,139.1433109,
熊谷警察署,埼玉県熊谷市石原４４１－４,庁舎１階受付,36.15710011,139.3679168,
深谷警察署,埼玉県深谷市戸森８８－１,庁舎１階受付,36.20785695,139.2782168,
寄居警察署,埼玉県大里郡寄居町桜沢９２３,庁舎１階受付,36.12584886,139.1994591,
行田警察署,埼玉県行田市長野４１９５－１,庁舎１階受付,36.13541813,139.4715543,
羽生警察署,埼玉県羽生市東７－１３－１,庁舎１階受付,36.17065373,139.5491771,
加須警察署,埼玉県加須市大門町１９－５３,庁舎１階受付,36.13130801,139.5940502,
岩槻警察署,埼玉県さいたま市岩槻区岩槻５１０６,庁舎１階受付,35.95642968,139.6859517,
春日部警察署,埼玉県春日部市大沼１－８２,庁舎１階受付,35.96661102,139.7472314,
越谷警察署,埼玉県越谷市東越谷６－６７－１,庁舎１階受付,35.8956666,139.801651,
久喜警察署,埼玉県久喜市上早見１５４,庁舎１階受付,36.06758034,139.6603502,
幸手警察署,埼玉県幸手市上吉羽９６４,庁舎１階受付,36.0822999,139.7365036,
杉戸警察署,埼玉県北葛飾郡杉戸町堤根４６７３－１,庁舎１階受付,36.02126201,139.7446599,
吉川警察署,埼玉県三郷市上彦名１４４－３,庁舎１階受付,35.84966022,139.8468793,
運転免許センター,埼玉県鴻巣市鴻巣４０５－４,庁舎１階救護室,36.06994942,139.5228282,
埼玉県警察学校,埼玉県さいたま市北区植竹町１－８０４,庁舎１階受付,35.92899834,139.6243386,
埼玉県立高等看護学院,埼玉県熊谷市板井１６９６,校舎１階窓口,36.11107978,139.3060873,
埼玉県立嵐山史跡の博物館,埼玉県比企郡嵐山町菅谷７５７,ロビーホール,36.03689892,139.3234441,
埼玉県立歴史と民俗の博物館,埼玉県さいたま市大宮区高鼻町４－２１９,館内,35.9211841,139.6300807,
埼玉県立文書館,埼玉県さいたま市浦和区高砂４－３－１８,２階文書閲覧室前,35.85732425,139.6469802,
埼玉県立熊谷図書館,埼玉県熊谷市箱田５－６－１,２階閲覧室入口,36.15048537,139.3911542,
埼玉県立長瀞げんきプラザ,埼玉県秩父郡長瀞町井戸３６７,事務室,36.10935632,139.1174024,
埼玉県立浦和北高等学校,埼玉県さいたま市桜区五関５９５,Ｈ・Ｒ管理棟（A棟）２階職員室前,35.86686399,139.5947306,
埼玉県立白岡高等学校,埼玉県白岡市高岩２７５－１,正面玄関,36.03217393,139.6763905,
埼玉県立鴻巣高等学校,埼玉県鴻巣市大間１０２０,体育館玄関,36.05981774,139.5007374,
埼玉県立名栗げんきプラザ,埼玉県飯能市上名栗１２８９－２,事務所,35.93572472,139.1535568,
埼玉県立総合教育センター,埼玉県行田市富士見町２－２４,体育館玄関,36.15074007,139.4738913,
埼玉県立久喜図書館,埼玉県久喜市下早見８５－５,２階ロビー　コインロッカー横,36.06246027,139.6674351,
埼玉県立狭山経済高等学校,埼玉県狭山市稲荷山２－６－１,体育館,35.84221059,139.3947792,
埼玉県立小川高等学校,埼玉県比企郡小川町大塚１１０５,体育館入口,36.05940525,139.2610149,
埼玉県浦和競馬組合,埼玉県さいたま市南区大谷場１－８－４２,事務所内,35.85754729,139.668015,
埼玉県中川水循環センター,埼玉県三郷市番匠免３－２－２,中央監視室,35.83446821,139.8634736,
埼玉県動物指導センター,埼玉県熊谷市板井１２３,玄関ホール,36.10397627,139.3111921,
加須保健所,埼玉県加須市南町５－１５,庁舎１階,36.1200347,139.5991657,
埼玉県立熊谷高等技術専門校,埼玉県熊谷市新堀新田５２２,１階職員室,36.17379083,139.3204204,
朝霞保健所,埼玉県朝霞市青葉台１－１０－５,１階事務所,35.79005232,139.59281,
埼玉県飯能合同庁舎,埼玉県飯能市双柳３５３,２階県税事務所,35.85429867,139.3321432,
埼玉県立職業能力開発センター,埼玉県さいたま市北区櫛引町２－４９９－１１,センター事務室,35.92042473,139.6089636,
狭山保健所,埼玉県狭山市稲荷山２－１６－１,１階事務室レジ横,35.8424222,139.3935684,
埼玉県東松山地方庁舎,埼玉県東松山市六軒町５－１,県税事務所執務室,36.03238072,139.4130658,
埼玉県川口地方庁舎,埼玉県川口市西青木２－１３－１,県税事務所１階カウンター,35.81552075,139.7137245,
埼玉県立春日部高等技術専門校,埼玉県春日部市下大増新田６１－１,管理棟１階,35.95745389,139.7430471,
埼玉県立熊谷高等技術専門校秩父分校,埼玉県秩父市上町３－２１－７,１階事務室,35.98918016,139.0736226,
草加保健所,埼玉県草加市西町４２５－２,１階事務室内,35.82938084,139.795662,
埼玉県春日部地方庁舎,埼玉県春日部市大沼１－７６,庁舎１階東側保健所前,35.96794363,139.7465566,
埼玉県越谷合同庁舎,埼玉県越谷市越ケ谷４－２－８２,県税事務所１階ロビー,35.89249526,139.7904604,
埼玉県秩父地方庁舎,埼玉県秩父市東町２９－２０,秩父地域振興センター執務室,35.99221391,139.0812194,
埼玉県浦和合同庁舎,埼玉県さいたま市浦和区北浦和５－６－５,１階ロビー,35.87401731,139.640418,
埼玉県狭山丘陵いきものふれあいの里センター,埼玉県所沢市荒幡７８２,事務所内,35.77474482,139.4452237,
さいたま緑の森博物館,埼玉県入間市宮寺８８９－１,事務所内,35.78631272,139.3840407,
埼玉県立深谷はばたき特別支援学校,埼玉県深谷市本田５０,なかよしハウス１階保健室前,36.13192119,139.2808947,
埼玉県立深谷はばたき特別支援学校,埼玉県深谷市本田５０,体育館入口,36.13198173,139.2808947,
埼玉県上尾地方庁舎（県央地域振興センター）,埼玉県上尾市南２３９－１,県央地域振興センター事務室内,35.99518908,139.5885951,
川越高等技術専門校,埼玉県川越市並木５７２－１,管理・技術棟２階保健室,35.89989676,139.5261132,
幸手保健所,埼玉県幸手市中１－１６－４,事務室,36.07583064,139.7163673,
埼玉県農業大学校,埼玉県熊谷市樋春２０１０,（１F）事務棟事務室前,36.11199272,139.3558129,
秩父保健所,埼玉県秩父市桜木町８－１８,事務室,36.00285439,139.0818611,
坂戸保健所,埼玉県坂戸市石井２３２７－１,事務室（火災報知器スイッチの下）,35.96844281,139.4079782,
南部保健所,埼玉県川口市前川１－１１－１,１階　事務室,35.83331474,139.7093667,
埼玉県所沢地方庁舎（県西部地域振興センター）,埼玉県所沢市並木１－８－１,１階入口横,35.80007268,139.4719382,
鴻巣保健所,埼玉県鴻巣市東４－５－１０,１階事務所,36.06534151,139.519312,
埼玉県朝霞地方庁舎（朝霞県税事務所）,埼玉県朝霞市三原１－３－１,１階執務室,35.80899341,139.5785207,
みどりの村,埼玉県秩父郡小鹿野町飯田８５３,案内所,36.03566609,138.9826539,
県民の森,埼玉県秩父郡横瀬町芦ケ久保丸山北平８９６,管理事務所,35.99360869,139.1625765,
長瀞総合射撃場,埼玉県秩父郡長瀞町野上下郷２３９５－１,クラブハウス内事務室,36.12853084,139.0974622,
川口高等技術専門校,埼玉県川口市青木４－４－２２,２階事務室内,35.8156304,139.7216047,
狭山稲荷山公園,埼玉県狭山市稲荷山１－２３－１,管理事務所,35.8467021,139.397519,
埼玉県本庄地方庁舎（本庄県税事務所）,埼玉県本庄市朝日町１－４－６,庁舎玄関横,36.23270851,139.1927867,
埼玉県熊谷地方庁舎（北部地域振興センター）,埼玉県熊谷市末広３－９－１,１F　ロビー,36.14346603,139.3964268,
埼玉県荒川水循環センター,埼玉県戸田市笹目５－３７－１４,管理棟１階中央監視室,35.81303771,139.6417263,
本庄保健所,埼玉県本庄市前原１－８－１２,事務室,36.23676821,139.1781884,
埼玉県立羽生実業高等学校,埼玉県羽生市羽生３２３,体育館（体育教官室）,36.178019,139.5281386,
埼玉県総合リハビリテーションセンター,埼玉県上尾市西貝塚１４８－１,A棟４階入所支援事務室,35.93806179,139.5530801,
埼玉県総合リハビリテーションセンター,埼玉県上尾市西貝塚１４８－１,D棟１階支援部事務室,35.93806179,139.5530801,
埼玉県総合リハビリテーションセンター,埼玉県上尾市西貝塚１４８－１,B棟１階総合受付脇,35.93806179,139.5530801,
埼玉県総合リハビリテーションセンター,埼玉県上尾市西貝塚１４８－１,F棟５階第三病棟ナースステーション,35.93806179,139.5530801,
埼玉県総合リハビリテーションセンター,埼玉県上尾市西貝塚１４８－１,C棟地階プール管理室,35.93806179,139.5530801,
埼玉県総合リハビリテーションセンター,埼玉県上尾市西貝塚１４８－１,RI棟検査室,35.93806179,139.5530801,
埼玉県立小川げんきプラザ,埼玉県比企郡小川町木呂子５６１,本館２階事務室,36.08182986,139.2267952,
埼玉県立小川げんきプラザ,埼玉県比企郡小川町木呂子５６１,活動センター,36.08182986,139.2267952,
埼玉県立精神医療センター,埼玉県北足立郡伊奈町小室８１８－２,外来処置室,35.98257218,139.6198488,
埼玉県立精神医療センター,埼玉県北足立郡伊奈町小室８１８－２,第２外来処置室,35.98257218,139.6198488,
埼玉県立循環器・呼吸器病センター,埼玉県熊谷市板井１６９６,本館棟４階東病棟エレベーターホール,36.11114335,139.3049271,
埼玉県立循環器・呼吸器病センター,埼玉県熊谷市板井１６９６,本館棟５階大会議室入口,36.11114335,139.3049271,
埼玉県立循環器・呼吸器病センター,埼玉県熊谷市板井１６９６,治療棟１階呼吸器内科受付,36.11114335,139.3049271,
埼玉県立循環器・呼吸器病センター,埼玉県熊谷市板井１６９６,治療棟２階エレベーターホール,36.11114335,139.3049271,
埼玉県立小児医療センター岩槻診療所,埼玉県さいたま市岩槻区馬込２１００,処置室,35.96849499,139.6549441,
埼玉県立小児医療センター岩槻診療所,埼玉県さいたま市岩槻区馬込２１００,処置室,35.96849499,139.6549441,
埼玉県立上尾かしの木特別支援学校,埼玉県上尾市平塚１２８１－１,事務室,35.98723421,139.611712,
埼玉県立大宮北特別支援学校　さいたま西分校,埼玉県さいたま市西区西遊馬１６０１,事務室,35.90940939,139.5603426,
埼玉県立川越特別支援学校　川越たかしな分校,埼玉県川越市砂新田２５６４,事務室,35.87788658,139.4886967,
埼玉県立特別支援学校 さいたま桜高等学園,埼玉県さいたま市桜区上大久保５１９－７,（４F）職員室,35.86999633,139.6119373,
埼玉県立所沢おおぞら特別支援学校,埼玉県所沢市南永井６１９－７,事務室,35.81436942,139.5245992,
埼玉県立特別支援学校塙保己一学園,埼玉県川越市笠幡８５－１,寄宿舎,35.90848297,139.4207415,
埼玉県立特別支援学校羽生ふじ高等学園,埼玉県羽生市下羽生３２０－１,事務室,36.16926619,139.5520114,
埼玉県行田地方庁舎（利根地域振興センター）,埼玉県行田市本丸２－２０,１階執務室,36.13758886,139.4562867,
埼玉県立中央高等技術専門校,埼玉県上尾市戸崎９７５,管理棟玄関,35.94895807,139.5946728,
ふれあいキューブ（東部地域振興ふれあい拠点施設）,埼玉県春日部市南１－１－７,１階ララガーデン側入口自販機前,35.97808467,139.7552935,
埼玉県立加須げんきプラザ,埼玉県加須市花崎４５６,研修棟エントランス,36.10652377,139.6314996,
埼玉県立新座柳瀬高等学校,埼玉県新座市大和田４－１２－１,体育館,35.81596468,139.5513625,
埼玉県立草加かがやき特別支援学校草加分校,埼玉県草加市原町２－７－１県立草加西高校内,生徒昇降口,35.84704827,139.7739034,
川越公園管理事務所,埼玉県川越市池辺８８０,フィットネスジムフロント,35.91067822,139.4495342,
川越公園管理事務所,埼玉県川越市池辺８８０,公園管理事務所２階,35.91234436,139.4505641,
埼玉県立川口青陵高等学校,埼玉県川口市神戸東５２０－１,体育館１階,35.85400465,139.7307562,
埼玉県立川口青陵高等学校,埼玉県川口市神戸東５２０－１,普通教室棟２階職員室,35.85401882,139.7307304,
埼玉県立嵐山郷,埼玉県比企郡嵐山町古里１８４８,２寮職員室,36.10807053,139.3007964,
埼玉県立伊奈学園総合高等学校,埼玉県北足立郡伊奈町学園４－１－１,理科棟モール,36.01470558,139.6126817,
埼玉県立嵐山郷,埼玉県比企郡嵐山町古里１８４８,３寮職員室,36.1078403,139.301387,
埼玉県立嵐山郷,埼玉県比企郡嵐山町古里１８４８,４寮職員室,36.10766697,139.3011078,
埼玉県立嵐山郷,埼玉県比企郡嵐山町古里１８４８,６寮職員室,36.10784053,139.299681,
埼玉県立草加かがやき特別支援学校,埼玉県草加市松原４－６－１,事務室前,35.84584102,139.7886986,
埼玉県立草加かがやき特別支援学校,埼玉県草加市松原４－６－１,保健室前,35.84553884,139.7889989,
埼玉県立草加かがやき特別支援学校,埼玉県草加市松原４－６－１,南棟３階エレベーター横（夏期プール管理室）,35.84584325,139.7886986,
埼玉県立草加かがやき特別支援学校,埼玉県草加市松原４－６－１,体育館１階トイレ横,35.84553884,139.7889989,
埼玉県立新座総合技術高等学校,埼玉県新座市新塚１－３－１,体育館,35.77879476,139.5848156,
埼玉県立嵐山郷,埼玉県比企郡嵐山町古里１８４８,７寮職員室,36.10741558,139.2999171,
埼玉県立嵐山郷,埼玉県比企郡嵐山町古里１８４８,８寮職員室,36.10738974,139.2995844,
埼玉県立嵐山郷,埼玉県比企郡嵐山町古里１８４８,１０寮職員室,36.10647097,139.3000191,
埼玉県庁,埼玉県さいたま市浦和区仲町３－５－８,危機管理防災センター　１階玄関横,35.85955848,139.6484311,
埼玉県立嵐山郷,埼玉県比企郡嵐山町古里１８４８,１１寮職員室,36.10648819,139.3000457,
埼玉県立嵐山郷,埼玉県比企郡嵐山町古里１８４８,１２寮職員室,36.10647957,139.299638,
埼玉県立嵐山郷,埼玉県比企郡嵐山町古里１８４８,１４寮職員室,36.10671763,139.3007646,
埼玉県立嵐山郷,埼玉県比企郡嵐山町古里１８４８,１５寮職員室,36.10673096,139.3007648,
埼玉県立嵐山郷,埼玉県比企郡嵐山町古里１８４８,機能訓練棟,36.10738092,139.3020144,
埼玉県立嵐山郷,埼玉県比企郡嵐山町古里１８４８,第１作業所,36.10738092,139.3020144,
埼玉県立嵐山郷,埼玉県比企郡嵐山町古里１８４８,管理棟受付,36.10647074,139.3016764,
埼玉県立越谷北高等学校,埼玉県越谷市大泊５００－１,事務室前玄関,35.93755983,139.7874841,
埼玉県立越谷東高等学校,埼玉県越谷市増林５６７０－１,２階エントランス,35.89361157,139.812819,
埼玉県立誠和福祉高等学校,埼玉県羽生市神戸７０６,管理棟２階職員室,36.137537,139.5623665,
熊谷スポーツ文化公園陸上競技場,埼玉県熊谷市上川上３００,管理事務所,36.16387245,139.4110231,
埼玉県浦和合同庁舎,埼玉県さいたま市浦和区北浦和５－６－５,別館１階ロビー,35.87403412,139.6397901,
自動車税事務所,埼玉県さいたま市大宮区下町３－８－３,窓口カウンター横,35.90454349,139.630683,
自動車税事務所　大宮支所,埼玉県さいたま市西区中釘２１５２,窓口カウンター横,35.94120722,139.5717237,
自動車税事務所　熊谷支所,埼玉県熊谷市御稜威ケ原７０１－５,事務室内（客溜側）,36.16257933,139.2999493,
自動車税事務所　所沢支所,埼玉県所沢市牛沼６９０－１,１階ロビー,35.79977732,139.4989317,
自動車税事務所　春日部支所,埼玉県春日部市増戸７５２－５,窓口カウンター,35.95513652,139.7279365,
埼玉県東部環境管理事務所,埼玉県北葛飾郡杉戸町清地５－４－１０,事務室内,36.02787831,139.7382146,
元荒川水循環センター,埼玉県桶川市小針領家９３９,管理本館４階中央監視室,36.02650981,139.5923599,
小山川水循環センター,埼玉県本庄市東五十子３８２－１,管理本館２階中央監視室,36.22771693,139.2164963,
古利根川水循環センター,埼玉県久喜市吉羽７７２－１,管理棟２階中央監視室,36.05838969,139.6904808,
埼玉県立浦和西高等学校,埼玉県さいたま市浦和区木崎３－１－１,ＨＲ棟１階トイレ入口,35.88935611,139.6540166,
埼玉県立小児医療センター,埼玉県さいたま市中央区新都心１－２,１２階スタッフエレベーターホール前,35.8912975,139.6314709,
埼玉県立小児医療センター,埼玉県さいたま市中央区新都心１－２,１１階スタッフエレベーターホール前,35.89138639,139.6316626,
埼玉県立小児医療センター,埼玉県さいたま市中央区新都心１－２,１０階スタッフエレベーターホール前,35.89152499,139.6319414,
埼玉県立小児医療センター,埼玉県さいたま市中央区新都心１－２,９階スタッフエレベーターホール前,35.89118558,139.6315668,
埼玉県立小児医療センター,埼玉県さいたま市中央区新都心１－２,６階講堂前,35.89118558,139.6315668,
埼玉県立小児医療センター,埼玉県さいたま市中央区新都心１－２,５階西エレベーターホール,35.89126974,139.6317479,
埼玉県立小児医療センター,埼玉県さいたま市中央区新都心１－２,３階整形外科受付前,35.89106671,139.6317915,
埼玉県立小児医療センター,埼玉県さいたま市中央区新都心１－２,２階外来待合,35.89122058,139.6318673,
埼玉県立小児医療センター,埼玉県さいたま市中央区新都心１－２,２階在宅支援相談室前,35.8913128,139.6322695,
埼玉県立小児医療センター,埼玉県さいたま市中央区新都心１－２,地下１階栄養部前廊下,35.89102367,139.6322695,
埼玉県立がんセンター,埼玉県北足立郡伊奈町小室７８０,放射線治療（ＣＴ操作室）,35.98449161,139.61728,
埼玉県立がんセンター,埼玉県北足立郡伊奈町小室７８０,放射線診断（一般撮影室）,35.98457827,139.6174339,
埼玉県立がんセンター,埼玉県北足立郡伊奈町小室７８０,放射線診断（ＣＴ操作室）,35.98463966,139.6175628,
埼玉県立がんセンター,埼玉県北足立郡伊奈町小室７８０,地下１階エレベーターホール,35.98471327,139.6177905,
埼玉県立がんセンター,埼玉県北足立郡伊奈町小室７８０,ホスピタルストリート,35.9847441,139.6178966,
埼玉県立がんセンター,埼玉県北足立郡伊奈町小室７８０,３階エレベーターホール,35.98483604,139.6181166,
埼玉県立がんセンター,埼玉県北足立郡伊奈町小室７８０,４階デイルーム,35.98486687,139.618238,
埼玉県立がんセンター,埼玉県北足立郡伊奈町小室７８０,４階コミュニティラウンジ,35.98424664,139.6174339,
埼玉県立がんセンター,埼玉県北足立郡伊奈町小室７８０,５階デイルーム,35.98435108,139.6176236,
埼玉県立がんセンター,埼玉県北足立郡伊奈町小室７８０,６階デイルーム,35.98442469,139.6177678,
埼玉県立がんセンター,埼玉県北足立郡伊奈町小室７８０,７階デイルーム,35.98462134,139.6180483,
埼玉県立がんセンター,埼玉県北足立郡伊奈町小室７８０,８階デイルーム,35.98453525,139.6182988,
埼玉県立がんセンター,埼玉県北足立郡伊奈町小室７８０,９階デイルーム,35.98427109,139.6177603,
埼玉県立がんセンター,埼玉県北足立郡伊奈町小室７８０,１０階デイルーム,35.98434498,139.6178664,
埼玉県立がんセンター,埼玉県北足立郡伊奈町小室７８０,臨床腫瘍研究所,35.98430194,139.6182988,
埼玉県立がんセンター,埼玉県北足立郡伊奈町小室７８０,防災センター前,35.98400112,139.6176767,
埼玉県立がんセンター,埼玉県北足立郡伊奈町小室７８０,１階エレベーターホール,35.9839828,139.6179725,
埼玉県立がんセンター,埼玉県北足立郡伊奈町小室７８０,２階エレベーターホール,35.98395197,139.6181319,
埼玉県立がんセンター,埼玉県北足立郡伊奈町小室７８０,内科系処置室,35.9844186,139.6185416,
埼玉県立がんセンター,埼玉県北足立郡伊奈町小室７８０,通院治療センター,35.98381088,139.6182686,
埼玉県立がんセンター,埼玉県北足立郡伊奈町小室７８０,ＲＩ（ＰＥＴ－ＣＴ操作室）,35.98408697,139.6185491,
埼玉県立がんセンター,埼玉県北足立郡伊奈町小室７８０,放射線治療（診察室）,35.98375561,139.6182608,
埼玉県立がんセンター,埼玉県北足立郡伊奈町小室７８０,放射線治療（小線源治療）,35.9842036,139.6178891,
埼玉県立がんセンター,埼玉県北足立郡伊奈町小室７８０,外科系処置室,35.98392141,139.6176842,
埼玉県立がんセンター,埼玉県北足立郡伊奈町小室７８０,放射線治療（アンギオ）,35.98409336,139.6185794,
埼玉県新三郷浄水場,埼玉県三郷市南蓮沼１,中央管理室（２階）,35.84646008,139.869707,
埼玉県水道整備事務所,埼玉県さいたま市桜区五関３８７－２,執務室１階ガラス棚,35.86666072,139.5960355,
埼玉県水道整備事務所　鴻巣駐在,埼玉県鴻巣市鴻巣８５０,１階右側執務室パソコンラック,36.06682136,139.5198369,
大宮第二公園,埼玉県さいたま市大宮区寿能町２－４０５,ギャラリー棟,35.91856235,139.6402488,
埼玉県西部地域振興ふれあい拠点施設（ウェスタ川越）,埼玉県川越市新宿町１－１７－１７,１階　管理事務室,35.9041428,139.4790117,
埼玉県立越谷南高等学校,埼玉県越谷市レイクタウン７－９,体育館管理室,35.87413118,139.8200503,
埼玉県立草加東高等学校,埼玉県草加市柿木町１１１０－１,２階職員室前,35.86529374,139.8263388,
環境整備センター,埼玉県大里郡寄居町三ケ山３６８,事務所１階受付及び巡回車内,36.09736872,139.2187408,
環境整備センター,埼玉県大里郡寄居町三ケ山３６８,現場公用車用,36.09739926,139.2185928,
埼玉県立大宮東高等学校,埼玉県さいたま市見沼区膝子５６７,第２体育館　１階玄関,35.92720572,139.6847355,
埼玉県立草加西高等学校,埼玉県草加市原町２－７－１,体育館２階体育教官室,35.84736325,139.7745861,
埼玉県立草加西高等学校　第２グラウンド,埼玉県川口市西立野４２－３,管理室,35.8556106,139.7520688,
埼玉スタジアム２００２公園,埼玉県さいたま市緑区美園２－１,救護室５階　Ａ５０１,35.90333012,139.7172945,
埼玉スタジアム２００２公園,埼玉県さいたま市緑区美園２－１,救護室５階　Ａ５０５,35.90366982,139.7176792,
埼玉スタジアム２００２公園,埼玉県さいたま市緑区美園２－１,南案内所,35.90216165,139.7175809,
埼玉スタジアム２００２公園,埼玉県さいたま市緑区美園２－１,北案内所,35.90389396,139.7175809,
こども動物自然公園,埼玉県東松山市岩殿５５４,こどもの城,35.99839355,139.375392,
こども動物自然公園,埼玉県東松山市岩殿５５４,ガゼボ休憩舎,35.99957146,139.3749281,
こども動物自然公園,埼玉県東松山市岩殿５５４,中央売店,35.9998667,139.3748534,
上尾運動公園水泳場,埼玉県上尾市日の出２,管理事務所１階,35.96801792,139.606978,
上尾運動公園水泳場,埼玉県上尾市日の出２,管理事務所１階,35.96828816,139.6067049,
上尾運動公園水泳場,埼玉県上尾市日の出２,救護室１階　,35.96783377,139.606978,
上尾運動公園運動場（陸上競技場）,埼玉県上尾市愛宕３－２８,陸上競技場管理事務所入口１階,35.96934429,139.6015198,
秋ヶ瀬公園管理事務所,埼玉県さいたま市桜区道場４－１７,スポーツ広場テニスＮｏ１６前トイレ,35.85145888,139.6084503,
しらこばと公園,埼玉県越谷市小曽川９８５,事務所（夏季：事務所）,35.91374648,139.74912,
しらこばと公園,埼玉県越谷市小曽川９８５,救護室（夏季：総合案内所）,35.91361732,139.7491731,
しらこばと公園,埼玉県越谷市小曽川９８５,救護室（夏季：造波プール）,35.91375259,139.74912,
しらこばと公園（２次区域）,埼玉県さいたま市岩槻区末田５９４,事務所,35.91433523,139.7465891,
所沢航空発祥記念館,埼玉県所沢市並木１－１３地内,エントランス,35.7990139,139.4717374,
羽生水郷公園,埼玉県羽生市三田ケ谷７５１－１,管理事務所,36.17321198,139.5976667,
羽生水郷公園,埼玉県羽生市三田ケ谷７５１－１,管理棟（カヌー受付所）,36.17210769,139.5989708,
久喜菖蒲公園,埼玉県久喜市河原井町７０,有料釣堀管理事務所,36.05589853,139.6474131,
権現堂公園（１号公園）,埼玉県久喜市小右衛門５０,管理事務所,36.10967315,139.7245288,
権現堂公園（１号公園）,埼玉県久喜市小右衛門５０,管理事務所,36.10967037,139.7245785,
権現堂公園（４号公園）,埼玉県幸手市内国府間８８７－３,職員詰所,36.09357987,139.7211075,
権現堂公園（４号公園）,埼玉県幸手市内国府間８８７－３,職員詰所,36.09369764,139.7212956,
秩父ミューズパーク管理事務所,埼玉県秩父郡小鹿野町長留２５１８,事務所受付横,35.98240623,139.0433216,
まつぶし緑の丘公園,埼玉県北葛飾郡松伏町大川戸２６０６－１,管理センター内,35.94392805,139.8099611,
埼玉県西部地域振興ふれあい拠点施設（ウェスタ川越）,埼玉県川越市新宿町１－１７－１7,５階　渡り通路,35.90414175,139.4790093,
埼玉県西部地域振興ふれあい拠点施設（ウェスタ川越）,埼玉県川越市新宿町１－１７－１７,４階　渡り通路,35.90414604,139.4790167,
埼玉県立上尾かしの木特別支援学校,埼玉県上尾市平塚１２８１－１,体育館教官室,35.98735896,139.6132702,
埼玉県立川口工業高等学校,埼玉県川口市南前川１－１０－１,管理棟２階渡り廊下,35.82775425,139.7089633,
埼玉県立坂戸西高等学校,埼玉県坂戸市坂戸市四日市場１０１,体育教官室,35.93398939,139.3529218,
埼玉県地域整備事務所,埼玉県さいたま市大宮区大成町１－５２８－１,事務室,35.90949908,139.6113694,
地方職員共済組合埼玉診療所,埼玉県さいたま市浦和区高砂３－１４－２１,地方職員共済組合埼玉診療所内科,35.85830443,139.6476078,
埼玉県警察本部交通部高速道路交通警察隊,埼玉県所沢市坂之下761-1,所沢分駐隊（事務室内）,35.80977931,139.5321982,
埼玉県住宅供給公社,埼玉県さいたま市浦和区仲町３－１２－１０,１階エントランス,35.85950151,139.6472253,
大宮支所,埼玉県さいたま市大宮区寿能町２－１３１,１階入口,35.9216178,139.635408,
埼玉県立川越女子高等学校,埼玉県川越市六軒町１－２３,体育館準備室,35.91530597,139.4785019,
埼玉県立大宮高等学校,埼玉県さいたま市大宮区天沼町２－３２３,南校舎１階保健室前廊下,35.9002497,139.6368648,
新河岸川水循環センター,埼玉県和光市新倉６－１－１,管理棟中央管理室,35.80624141,139.6165923,
富士見中継ポンプ場,埼玉県富士見市水子２３９４－１,事務室,35.84515426,139.5756642,
新河岸川上流水循環センター,埼玉県川越市大仙波1287,管理棟2階事務室,35.9047901,139.4948876,
新河岸川水循環センター,埼玉県和光市新倉６－１－１,汚泥棟事務室,35.80437185,139.6249975,
埼玉県立伊奈学園総合高等学校,埼玉県北足立郡伊奈町学園４－１－１,プール管理室,36.0154602,139.6121128,
埼玉県立戸田かけはし高等特別支援学校,埼玉県戸田市新曽１０９３－１,体育館棟１階エントランス,35.82002505,139.6650879,
埼玉県立戸田かけはし高等特別支援学校,埼玉県戸田市新曽１０９３－１,昇降口棟１階保健室,35.81983007,139.6651518,
埼玉県立戸田かけはし高等特別支援学校,埼玉県戸田市新曽１０９３－１,教室棟４階職員室,35.81962842,139.6647405,
埼玉県立大宮北特別支援学校,埼玉県さいたま市西区中釘２２９０－１,体育館入口,35.9432701,139.5741323,
埼玉県越谷児童相談所,埼玉県越谷市恩間４０２－１,相談所棟（１F）玄関,35.92455311,139.7699826,
県立久喜特別支援学校 白岡分校,埼玉県白岡市高岩２７５－１（県立白岡高校内）,（普通教室棟）分校保健室前,36.03208328,139.6762659,
埼玉県農業技術研究センター,埼玉県熊谷市須賀広７８４,搾乳牛舎,36.11056976,139.3528345,
埼玉県農業大学校,埼玉県熊谷市樋春２０１０,花き専攻棟,36.11174734,139.3560031,
埼玉県水質管理センター,埼玉県行田市小針１６３２,（１F）事務室入口,36.13575756,139.4960693,
埼玉県 柿木浄水場,埼玉県草加市柿木町１６２,管理事務所 入口,35.85972737,139.8336235,
埼玉県農林公園,埼玉県深谷市本田５７６８－１,管理事務所,36.1123536,139.288204,
埼玉県秩父高原牧場（彩の国ふれあい牧場）,埼玉県秩父郡東秩父村坂本２９５１,モーモーハウス事務室,36.05400671,139.157199,
埼玉県茶業研究所,埼玉県入間市上谷ヶ貫２４４－２,講堂,35.80883421,139.3460206,
馬宮西放課後児童クラブ（キッズクラブまみや西）,西区 飯田新田189-2 馬宮西小学校内,クラブ室内,35.886205,139.559354,
栄小放課後子ども居場所事業専用室,西区 飯田811,クラブ室内,35.9069680965505,139.582470953332,
佐知川放課後児童クラブ,西区 佐知川299-16,クラブ室内,35.9036393,139.5875339,
春光園うえみず,西区 佐知川299-16,事務室,35.90364809,139.5875343,
植水保育園,西区 佐知川306,園内,35.9035548,139.5871364,
指扇保育園,西区 高木567-3,園内,35.9274483,139.5707863,
秋葉の森総合公園,西区 中釘1241,事務室（センターハウス）,35.935297,139.566423,
指扇北第二放課後児童クラブ（指扇北ふわふわ）,西区 中釘1506-4,クラブ室内,35.9329633990015,139.571438524462,
指扇北放課後児童クラブ（指扇北すくすく）,西区 中釘1538‐1,クラブ室内,35.932242,139.572036,
植水支所,西区 中野林173-2,支所内,35.893938,139.591685,
植水老人憩いの家,西区 中野林174-1,事務室,35.893749,139.592113,
植水放課後児童クラブ,西区 中野林174-1,クラブ室内,35.8938287898943,139.592167659434,
植水第二放課後児童クラブ,西区 中野林225-3,クラブ室内,35.8936735,139.5936994,
馬宮放課後児童クラブ,西区 西遊馬533-1,クラブ室内,35.9052776340477,139.572981067165,
緑のふるさとセンター,西区 西新井124,管理事務所,35.939682,139.591445,
花の食品館,西区 西新井216,１階トイレ付近,35.9409785707805,139.590761840231,
指扇放課後児童クラブ（指扇にじのこ）,西区 西大宮1-49-9,クラブ室内,35.921916,139.572988,
西区役所,西区 西大宮3-4-2,１階トイレ,35.9251544006731,139.579875004168,
馬宮保育園,西区 西遊馬119,園内,35.9014867,139.5741551,
馬宮支所,西区 西遊馬236-2,支所内,35.90365,139.573128,
馬宮コミュニティセンター,西区 西遊馬533-1,１階トイレ,35.9051166930736,139.572985203077,
馬宮児童センター,西区 西遊馬533-1,センター内,35.905091,139.572728,
馬宮荘,西区 西遊馬533-1,トイレ,35.905091,139.572728,
西遊馬公園,西区 西遊馬899-3,管理事務所,35.904504,139.561538,
職業訓練センター（大宮建設高等職業訓練校）,西区 西遊馬1338-13,事務室,35.914634,139.561273,
大宮ワークプラザ,西区 西遊馬1969-8,事務室,35.917111,139.561772,
西部環境センター,西区 宝来52-1,事務室,35.934047,139.55289,
西部清掃事務所,西区 宝来52-1,1階トイレ,35.9342315501956,139.553285483254,
健康福祉センター西楽園,西区 宝来60-1,１階ロビー,35.9326595258705,139.554493286035,
宝来グラウンド・ゴルフ場,西区 宝来125-1,管理事務所,35.931009,139.554271,
宝来グラウンド・ゴルフ場,西区 宝来125-1,南コース南東側(屋外開庁時),35.9305660841573,139.555129285417,
指扇駅南自転車駐車場,西区 宝来1649-4,事務室,35.916481,139.56427,
三橋総合公園,西区 三橋5-190,１階トイレ,35.913193,139.595473,
三橋総合公園プール,西区 三橋5-190,監視医務室,35.9128741138799,139.595317055203,
三橋総合公園プール,西区 三橋5-190,玄関ホールトイレ,35.912798,139.59501,
三橋西保育園,西区 三橋6-381-1,園内,35.9129169,139.5860387,
大宮西放課後児童クラブ（キッズクラブおおみや西あおぞら）,西区 三橋6-382-1,クラブ室内,35.913049,139.585798,
子育て支援センターにし,西区 三橋6-382-1 2階,事務室,35.913037,139.58586,
三橋支所,西区 三橋6-642-4,支所内,35.917659,139.591937,
西部文化センター,西区 三橋6-642-4,１階トイレ,35.917659,139.591937,
西部文化センター,西区 三橋6-642-4,３階トイレ,35.9177075136657,139.592059485963,
ひまわり学園,西区 三橋6-1587,1階理学療法室倉庫前,35.9208832212026,139.590284030095,
ひまわり学園,西区 三橋6-1587,2階総合スタッフルーム前,35.9208875654576,139.591923192528,
ひまわり学園,西区 三橋6-1587,1階医務課スタッフルーム前,35.9207767868807,139.589567880315,
みのり園,西区 三橋6-1587,事務室,35.920553,139.589646,
三橋プール,西区 三橋6-1709-3,管理事務所,35.921966,139.58518,
宮前放課後児童クラブ,西区 宮前町443,クラブ室内,35.9241206,139.5946766,
高齢者生きがい活動センター,北区 植竹町1-593-1,トイレ,35.927705,139.624087,
植竹第二放課後児童クラブ（東大成・植竹小もりのこクラブ）,北区 植竹町1-593-2,クラブ室内,35.927847,139.624615,
日進支所,北区 櫛引町2-574-1　イオン大宮店２階,支所内,35.9230684164614,139.609170799873,
泰平保育園,北区 今羽町596,園内,35.9484806,139.6262982,
泰平第二放課後児童クラブ（泰平小学童保育の会）,北区 今羽町628,クラブ室内,35.950285092967,139.625896119088,
大砂土デイサービスセンター,北区 今羽町637-1,事務室,35.950439,139.626466,
大砂土保育園,北区 土呂町1-51-8,園内,35.9354279,139.628256,
土呂駅西口自転車駐車場,北区 土呂町1-6-5,事務室,35.93043,139.631,
大宮盆栽美術館,北区 土呂町2-24-3,１階ロビー,35.928828,139.633129,
奈良保育園,北区 奈良町125-6,園内,35.9491015,139.5979922,
日進公園コミュニティセンター,北区 日進町1-312-2,１階トイレ,35.9232216726761,139.605261060444,
日進西保育園,北区 日進町1-800-1,園内,35.9263081,139.6042299,
老人福祉センターしもか荘,北区 日進町1-800-105,事務室,35.925622,139.604739,
日進保育園,北区 日進町2-632,園内,35.9296988,139.6092833,
日進放課後児童クラブ（日進小第一学童保育の会）,北区 日進町2-911 日進小学校内,クラブ室内,35.9252,139.607531,
日進駅南口自転車駐車場,北区 日進町2-1125-22,１階事務室,35.931457,139.606639,
日進駅南口自転車駐車場,北区 日進町2-1125-22,３階階段横,35.93150215998,139.606710718645,
アーカイブズセンター,北区 日進町2-1864-10,事務所内,35.9328637584076,139.609798327762,
日進・指扇周辺まちづくり事務所,北区 日進町2-1864-10,事務所内,35.9328637584076,139.609798327762,
つばさ放課後児童クラブ（キッズスペースつばさ）,北区 日進町2-1915-1 つばさ小学校内,クラブ室内,35.933281,139.609633,
産業振興会館,北区 日進町2-1915-4,１階トイレ,35.933092,139.609055,
産業振興会館,北区 日進町2-1915-4,２階トイレ,35.9330682405324,139.609004138253,
日進北放課後児童クラブ（どんぐりクラブ日進北一）,北区 日進町3-203,クラブ室内,35.936179,139.603235,
宮原駅西口自転車駐車場,北区 日進町3-729,１階事務室,35.939894,139.606189,
宮原駅西口自転車駐車場,北区 日進町3-729,３階階段横,35.9400425093244,139.606275454074,
東大成保育園,北区 東大成町2-103,園内,35.9258052767037,139.620536253453,
大宮別所第二放課後児童クラブ（キッズスペースうちゅう）,北区 別所町42-1,クラブ室内,35.9553224511942,139.597780805879,
大宮別所放課後児童クラブ（キッズスペースきぼう）,北区 別所町42-7,クラブ室内,35.954501,139.598306,
大砂土障害者デイサービスセンター,北区 本郷町17-7,事務室,35.937651,139.626204,
大砂土放課後児童クラブ,北区 本郷町17-7,クラブ室内,35.9376549,139.6262295,
本郷放課後児童クラブ,北区 本郷町1065-3,クラブ室内,35.9457096848011,139.626290672231,
本郷老人憩いの家,北区 本郷町1065-3,事務室,35.94568,139.626181,
車両対策事務所,北区 本郷町1872,１階トイレ,35.9465771684683,139.629992832828,
漫画会館,北区 盆栽町150,１階ロビー,35.9256293,139.6318302,
盆栽四季の家,北区 盆栽町267-1,事務室,35.9267663,139.6332595,
盆栽四季の家,北区 盆栽町267-1,もみじ通り沿い東屋前(屋外24時間),35.9265206730565,139.633150792473,
植竹放課後児童クラブ,北区 盆栽町430,クラブ室内,35.9274743008788,139.628115398119,
植竹児童センター,北区 盆栽町430,センター内,35.927397,139.628148,
市民の森・見沼グリーンセンター,北区 見沼2-94,事務所,35.9331,139.640519,
市民の森・見沼グリーンセンター,北区 見沼2-94,りすの家,35.9331065042164,139.640555395266,
北区役所,北区 宮原町1-852-1,１階トイレ,35.9309394121426,139.620144299124,
プラザノース,北区 宮原町1-852-1,１階トイレ,35.9314168175087,139.62033800238,
宮原保育園,北区 宮原町2-83-2,園内,35.9421783,139.6171527,
子育て支援センターきた,北区 宮原町3-432-2 岸町ﾋﾞﾙ201,事務室,35.94257946,139.60806334,
宮原駅東口自転車駐車場,北区 宮原町3-824-2,１階事務室,35.940644,139.609699,
宮原駅東口自転車駐車場,北区 宮原町3-824-2,３階通路,35.9404834091407,139.609839677287,
宮原支所,北区 宮原町3-824-2,支所内,35.940644,139.609699,
宮原放課後児童クラブ,北区 宮原町4-66-13,クラブ室内,35.9472390795037,139.611102662517,
宮原老人憩いの家,北区 宮原町4-66-13,事務室,35.947176,139.610957,
吉野原自転車保管所,北区 吉野町1-404-13,事務室,35.957190415985,139.620561865835,
宮原コミュニティセンター,北区 吉野町2-195-1,１階トイレ,35.9586044690704,139.600738996929,
老人福祉センターあずま荘,大宮区 東町2-105,事務室,35.908922,139.631882,
天沼放課後児童クラブ,大宮区 天沼町1-194,クラブ室内,35.9063187423721,139.636968469605,
天沼老人憩いの家,大宮区 天沼町1-194,事務室,35.90622,139.636937,
天沼テニス公園（天沼緑地）,大宮区 天沼町1-676-1,事務室,35.910211,139.645467,
合併記念見沼公園,大宮区 天沼町1-941,管理棟,35.905743,139.646458,
大成放課後児童クラブ（大成パンダ）,大宮区 大成町2-282 大成小学校内,クラブ室内,35.9149,139.61358,
天沼保育園,大宮区 天沼町2-438-1,園内,35.8988286,139.6394986,
大成保育園,大宮区 大成町3-655-1,園内,35.915505,139.611419,
上小保育園,大宮区 上小町845-4,園内,35.9000089,139.6113249,
大宮区役所,大宮区 吉敷町1-124-1,地下１階エレベーターホール,35.901783623735,139.630670730193,
大宮区役所,大宮区 吉敷町1-124-1,１階トイレ,35.901754,139.630439,
大宮区役所（障害者更生相談センター前）,大宮区 吉敷町1-124-1 大宮区役所4階,４階トイレ,35.901783623735,139.630670730193,
大宮保育園,大宮区 吉敷町1-132-3,園内,35.9013154,139.6306438,
食肉中央卸売市場,大宮区 吉敷町2-23,事務所,35.898227,139.627538,
大宮南放課後児童クラブ（大宮南なかよしキッズ）,大宮区 吉敷町3-95,クラブ室内,35.899861,139.633512,
さいたま新都心駅東口自転車等駐車場,大宮区 吉敷町4-269-1,１階事務室,35.894074,139.637043,
さいたま新都心駅東口自転車等駐車場,大宮区 吉敷町4-269-1,３階階段横,35.894176084469,139.637130823752,
さいたま新都心公園,大宮区 北袋町1-190-24,管理事務所内,35.893375,139.638859,
大宮南第二放課後児童クラブ（大宮南そらいろキッズ）,大宮区 北袋町1-190-13  2階,クラブ室内,35.8953073833253,139.6413925142,
さいたま新都心バスターミナル,大宮区 北袋町1-603-1,待合室,35.893448,139.637561,
大宮駅西口桜木町自転車駐車場,大宮区 桜木町1-7-1,地下１階事務室,35.905954,139.62016,
大宮駅西口桜木町自転車駐車場,大宮区 桜木町1-7-1,地下２階階段横,35.9059827732012,139.620353245544,
大宮ソニック市民ホール,大宮区 桜木町1-7-5,５階事務所内,35.905825,139.61944,
男女共同参画推進センター,大宮区 桜木町1-10-18 ｼｰﾉ大宮ｾﾝﾀｰﾌﾟﾗｻﾞ3階,事務室,35.90542,139.618766,
シーノ大宮自転車駐車場,大宮区 桜木町1-10-19,地下１階階段A横,35.9057514492633,139.618606729665,
シーノ大宮自転車駐車場,大宮区 桜木町1-10-19,地下１階事務室,35.90595,139.618694,
大宮駅西口自転車駐車場,大宮区 桜木町1-185,３階階段横,35.903776979892,139.622606295364,
大宮駅西口自転車駐車場,大宮区 桜木町1-185,事務室,35.9037689059583,139.622521397635,
のびのびプラザ大宮,大宮区 桜木町1-185-2,管理室,35.90337302,139.62251294,
子育て支援センターおおみや,大宮区 桜木町1-185-2 のびのびﾌﾟﾗｻﾞ大宮3階,事務室,35.903373,139.622513,
桜木保育園,大宮区 桜木町1-185-2 のびのびﾌﾟﾗｻﾞ大宮4階,園内,35.9034905,139.622524,
さいたま市若者自立支援ルーム桜木,大宮区 桜木町2-190,事務室,35.90651969,139.62032139,
桜木第一放課後児童クラブ（桜木げんごろう）,大宮区 桜木町4-328-1,クラブ室内,35.902723,139.616953,
寿能保育園,大宮区 寿能町2-140,園内,35.9211386,139.6366859,
大和田公園（市営大宮球場）,大宮区 寿能町2-519,球場玄関（施設内）,35.922285,139.639625,
大和田公園（市営大宮球場）,大宮区 寿能町2-519,1塁側トイレ(屋外開庁時),35.9219593553185,139.640099937396,
大和田公園（市営大宮球場）,大宮区 寿能町2-519,3塁側トイレ(屋外開庁時),35.9228117652766,139.640080799184,
大和田公園プール,大宮区 寿能町2-519,医務室,35.9215939377024,139.641228894556,
まるまるひがしにほん東日本連携センター,大宮区 大門町1-6-1,１階裏口付近,35.90725025,139.62539045,
市民会館おおみや,大宮区 大門町2-118,４階管理事務室,35.9074061348746,139.62742774083,
大宮駅東口大門町自転車駐車場,大宮区 大門町3-2,１階事務室,35.906729,139.62903,
大宮駅東口大門町自転車駐車場,大宮区 大門町3-2,２階階段横,35.9067161046541,139.629012496301,
大宮第二放課後児童クラブ（大宮小あおぎりっ子うみ）,大宮区 大門町3-3 大宮小学校内,クラブ室内,35.906623,139.630054,
氷川の杜文化館,大宮区 高鼻町2-262-1,事務所,35.9136824,139.6316398,
高鼻コミュニティセンター,大宮区 高鼻町2-292-1,１階トイレ,35.9158396103347,139.63165113341,
ＮＡＣＫ５スタジアム大宮,大宮区 高鼻町4丁目,２階アウェイ側男子トイレ,35.9162542098473,139.633611107416,
大宮ふれあい福祉センター,大宮区 土手町1-213-1,１階受付,35.915715,139.621388,
北大宮駅自転車駐車場,大宮区 土手町3-162-4,事務室,35.916327,139.625176,
大宮駅東口錦町自転車駐車場,大宮区 錦町478-6,１階事務室,35.905898,139.625038,
大宮駅支所,大宮区 錦町630ﾙﾐﾈ2-1F,支所内,35.90704,139.62255,
大栄橋錦町自転車駐車場,大宮区 錦町682-1,事務室,35.908633,139.622094,
消費生活総合センター,大宮区 錦町682-2 大宮情報文化センター6階,事務室,35.908119,139.621641,
大宮工房館,大宮区 堀の内町1-577-3,２階トイレ,35.9121432985373,139.641644987447,
大宮東放課後児童クラブ（東小第三学童保育の会）,大宮区 堀の内町3-145　大宮東小学校内,クラブ室内,35.9141612223882,139.635615366279,
三橋第二放課後児童クラブ,大宮区 三橋2-20,クラブ室内,35.9029502762274,139.605186407562,
三橋老人憩いの家,大宮区 三橋2-59,事務室,35.902892,139.603953,
三橋老人憩いの家分館,大宮区 三橋2-259-1,事務室,35.90052,139.60212,
三橋保育園,大宮区 三橋2-929,園内,35.9022307,139.6056913,
三つ和会館,大宮区 三橋3-52,１階ホール事務所,35.897837,139.608897,
大宮北放課後児童クラブ（大宮北小たけのこクラブ）,大宮区 宮町3-119-3,クラブ室内,35.911483,139.628468,
環境広場,見沼区 大谷483-1,事務室,35.921411,139.681441,
思い出の里市営霊園,見沼区 大谷600,管理棟トイレ付近,35.916572,139.675364,
七里コミュニティセンター,見沼区 大谷1210,１階トイレ,35.9210655018944,139.674360091881,
七里保育園,見沼区 大谷1985,園内,35.9266013,139.6754239,
大和田保育園,見沼区 大和田町1-1230-92,園内,35.9244361,139.6522634,
子育て支援センターみぬま,見沼区 大和田町1-1387-1,事務室,35.92745925,139.65028819,
大和田駅南自転車駐車場,見沼区 大和田町1-1387-1,１階事務室,35.927459,139.650288,
大和田駅南自転車駐車場,見沼区 大和田町1-1387-1,３階階段横,35.9275466010943,139.650376584135,
大宮体育館,見沼区 大和田町1-305,１階トイレ,35.9230741146712,139.644652911713,
大砂土東放課後児童クラブ（大砂土東小学童保育の会松の子クラブ第３）,見沼区 大和田町2-1054-7,クラブ室内,35.937894,139.646053,
みぬま見聞館,見沼区 上山口新田508-1,事務室,35.900752,139.649008,
大宮聖苑,見沼区 染谷2-350-1,１階ホール受付,35.9078312194741,139.689912757161,
片柳コミュニティセンター,見沼区 染谷3-147-1,１階トイレ,35.9096476263813,139.684031471331,
七里東保育園,見沼区 新堤40,園内,35.9310369,139.6713813,
蓮沼第二放課後児童クラブ（蓮沼小学童保育の会なないろクラブ）,見沼区 蓮沼1025-3,クラブ室内,35.934431,139.656235,
春野放課後児童クラブ,見沼区 春野1-7-1,クラブ室内,35.9561974866841,139.668036297696,
春野保育園,見沼区 春野1-7-1,園内,35.9556838,139.6679948,
春野老人憩いの家,見沼区 春野1-7-1,事務室,35.955737,139.667932,
はるの園,見沼区 春野2-3-5,事務室,35.957839,139.661741,
片柳支所,見沼区 東新井117-2,支所内,35.909734,139.670831,
片柳第二放課後児童クラブ（片柳ひかり）,見沼区 東新井244-1 片柳小学校内,クラブ室内,35.910775,139.670219,
片柳放課後児童クラブ（片柳のぞみ）,見沼区 東新井244-1 片柳小学校内,クラブ室内,35.910775,139.670219,
海老沼放課後児童クラブ,見沼区 東新井710-78,クラブ室内,35.9048499603788,139.664733722007,
片柳老人憩いの家,見沼区 東新井710-78,事務室,35.904846,139.66469,
東大宮コミュニティセンター,見沼区 東大宮4-31-1,１階トイレ,35.9496355942259,139.637669130118,
東大宮支所,見沼区 東大宮4-31-1,支所内,35.949533,139.637355,
東大宮駅東口自転車駐車場,見沼区 東大宮5-61,地下１階北事務室,35.948803,139.640866,
東大宮駅東口自転車駐車場,見沼区 東大宮5-61,地下２階階段横,35.9489181427259,139.640636727113,
東大宮放課後児童クラブ,見沼区 東大宮7-5-18,クラブ室内,35.9467591,139.645493,
東宮下放課後児童クラブ,見沼区 東宮下215-1 東宮下小学校内,クラブ室内,35.9259145,139.6776449,
七里小学校放課後子ども居場所事業,見沼区 東宮下392,専用室内,35.9307008,139.6761569,
七里支所,見沼区 東門前379-1,支所内,35.932817,139.672494,
健康福祉センター東楽園,見沼区 膝子984,ロビー,35.9265423183781,139.686766267533,
春岡支所,見沼区 深作1-5-1,支所内,35.950796,139.664369,
蓮沼放課後児童クラブ（蓮沼小学童保育の会あおぞらクラブ）,見沼区 風渡野373-5,クラブ室内,35.934781,139.661381,
堀崎公園,見沼区 堀崎町12-1,事務所,35.936769,139.653296,
見沼区役所,見沼区 堀崎町12-36,１階ホール案内所,35.9352471609428,139.654622350942,
大宮武道館,見沼区 堀崎町12-36,１階トイレ(東側),35.9351044021386,139.655652856723,
職員研修センター,見沼区 堀崎町48-1,事務室,35.934856,139.657047,
東大宮保育園,見沼区 丸ヶ崎町13-13,園内,35.9536105,139.6513747,
片柳保育園,見沼区 御蔵796,園内,35.9064357,139.6693388,
グリーンライフ猿花キャンプ場,見沼区 南中野975-2,事務所（管理棟）,35.91653,139.664637,
農業者総合研修施設（春おか広場）,見沼区 宮ケ谷塔765,受付事務室,35.9435743587788,139.67067596813,
農業者総合研修施設（春おか広場）,見沼区 宮ケ谷塔765,芝生広場（屋外開庁時）,35.9446733868631,139.670052934157,
春光園,見沼区 宮ケ谷塔1-280,事務室,35.950549,139.680251,
上峰コミュニティホール,中央区 上峰2-3-5,１階ロビー,35.873996,139.616545,
上峰デイサービスセンター,中央区 上峰3-10-6,事務室,35.874693,139.620986,
与野西北放課後児童クラブ,中央区 円阿弥4-3-7,クラブ室内,35.88721,139.6075079,
杉の子園,中央区 大戸2-7-17,事務室,35.865644,139.633233,
大戸保育園,中央区 大戸2-7-19,園内,35.8654006,139.6333921,
みずき園,中央区 大戸2-7-21,事務室,35.865167,139.633469,
与野南放課後児童クラブ,中央区 大戸6-2-19,クラブ室内,35.8672322058961,139.634736914647,
大戸児童センター,中央区 大戸6-2-19,センター内,35.8672322058961,139.634736914647,
下落合保育園,中央区 上落合1-5-3,園内,35.8901596251965,139.632079203265,
下落合放課後児童クラブ,中央区 上落合1-7-33,クラブ室内,35.8899739,139.6318691,
北与野駅北口地下駐車場,中央区 上落合2-3-10,地下１階事務室,35.891173,139.627924,
北与野駅北口地下駐車場,中央区 上落合2-3-10,地下２階トイレ付近,35.8912528731324,139.627865997806,
上落合保育園,中央区 上落合2-9-10,園内,35.8896879,139.6263099,
上落合放課後児童クラブ,中央区 上落合4-14-24,クラブ室内,35.8938249,139.6253201,
西与野コミュニティホール,中央区 桜丘2-6-28,１階トイレ,35.882189,139.61492,
与野駅西口臨時自転車駐車場,中央区 下落合1055,２階事務室,35.883493,139.637417,
与野駅西口臨時自転車駐車場,中央区 下落合1055,３階スロープ横,35.8836077984945,139.63737868106,
下落合コミュニティセンター,中央区 下落合1712,３階トイレ,35.8847045201372,139.636566410576,
組合区画整理事業推進事務所,中央区 下落合2-18-6,事務所,35.8836676039178,139.632166578008,
産業文化センター,中央区 下落合5-4-3,１階ホールロビー,35.8834582311831,139.631488334605,
中央区保健センター（中央区役所別館）,中央区 下落合5-6-11,１階トイレ（守衛室付近）,35.884134,139.626948,
中央区役所別館,中央区 下落合5-6-11,２階トイレ(増築棟側),35.8842317841131,139.627529083535,
中央区役所,中央区 下落合5-7-10,１階ロビー,35.8841123866097,139.626387174749,
与野体育館,中央区 下落合5-8-10,１階廊下,35.8844973040534,139.626094599002,
下落合プール,中央区 下落合5-11-10,事務室,35.884936,139.627124,
老人福祉センターいこい荘,中央区 下落合5-11-12,事務室,35.885223,139.626608,
向原児童センター,中央区 下落合7-11-9,センター内,35.881415,139.63156,
けやきひろば自転車駐車場,中央区 新都心10,１階事務室,35.892836,139.630733,
さいたま新都心ふれあいプラザ,中央区 新都心10 けやきひろば1階,事務室,35.89356615,139.63156245,
大戸放課後児童クラブ,中央区 新中里1-6-28,クラブ室内,35.8725503,139.6354433,
与野中央公園,中央区 新中里4-7-2,事務所（管理棟）,35.877001,139.631938,
南与野第２自転車駐車場,中央区 鈴谷1-513,事務室,35.866425,139.631341,
南与野第１自転車駐車場,中央区 鈴谷2-1221,事務室,35.869141,139.630314,
鈴谷小放課後子ども居場所事業専用室,中央区 鈴谷5-1-1,クラブ室内,35.8710612,139.6311672,
鈴谷保育園,中央区 鈴谷7-3-31,園内,35.8739797590529,139.628888181871,
障害者総合支援センター,中央区 鈴谷7-5-7,総合案内,35.87441,139.624305,
保健所,中央区 鈴谷7-5-12,エントランスホール,35.8736971533863,139.624341252938,
健康科学研究センター(保健所),中央区 鈴谷7-5-12,３階トイレ（西側）,35.8736971533863,139.624341252938,
八王子スポーツ施設,中央区 八王子4-1-10,管理事務所（管理棟）,35.879348,139.60937,
八王子スポーツ施設,中央区 八王子4-1-10,サッカー場(屋外開庁時),35.878836770925,139.609560393039,
八王子保育園,中央区 八王子5-12-17,園内,35.8806327,139.6053678,
与野休日急患診療所,中央区 本町西2-9-30,1階警備室前,35.8841925125022,139.619945732972,
与野本町第２自転車駐車場,中央区 本町東1-99,事務室,35.879891,139.626336,
与野本町第１自転車駐車場,中央区 本町東2-128,事務室,35.882769,139.625375,
子育て支援センターよの,中央区 本町東3-5-23,事務室,35.8840659627355,139.623573626907,
与野本町小学校放課後子ども居場所事業,中央区 本町東3-5-23,専用室内,35.8840107,139.6233934,
与野本町コミュニティセンター,中央区 本町東3-5-43,北側トイレ,35.8834977228297,139.623972866753,
与野本町デイサービスセンター,中央区 本町東4-7-20,１階事務所,35.885472,139.622138,
ひかり会館,中央区 本町東5-13-29,正面玄関内,35.889889,139.61985,
与野本町老人憩いの家,中央区 本町東5-17-25,事務室,35.8905,139.620388,
与野八幡放課後児童クラブ,中央区 本町東5-23-14,クラブ室内,35.8905035,139.6218811,
与野八幡第二放課後児童クラブ,中央区 本町東5-23-14,クラブ室内,35.8911516919409,139.622529693482,
医療的ケア児保育支援センター,中央区 本町東7-4-19,センター内,35.8915592,139.6207431,
大久保東児童センター,桜区 大久保領家131-6,センター内,35.86956,139.608243,
大久保東放課後児童クラブ,桜区 大久保領家331,クラブ室内,35.871326,139.6040776,
大久保保育園,桜区 大久保領家373-1,園内,35.8695246,139.602856,
上大久保保育園,桜区 上大久保940-3,園内,35.8693844,139.6093487,
大久保放課後児童クラブ,桜区 五関21,クラブ室内,35.8721424,139.5982639,
大久保支所,桜区 五関839-2,支所内,35.870238,139.597827,
荒川総合運動公園,桜区 在家591,事務所,35.877992,139.584506,
栄和放課後児童クラブ,桜区 栄和1-7-1,クラブ室内,35.8613438,139.6173915,
子育て支援センターさくら,桜区 栄和6-9-4,事務室,35.86010288,139.61108751,
西堀保育園,桜区 桜田3-9-12,園内,35.8520724,139.6188596,
新開放課後児童クラブ,桜区 新開2-18-1,クラブ室内,35.8507174,139.6174729,
クリーンセンター西堀,桜区 新開4-1-1,事務所（管理棟）,35.8432,139.618302,
老人福祉センター寿楽荘,桜区 下大久保727-1,１階玄関ロビー,35.863014,139.603471,
浦和斎場,桜区 下大久保1523-1,１階ホール,35.857885,139.602105,
浦和西体育館,桜区 下大久保1676-1,１階事務室,35.8586697965603,139.601570361897,
白鍬保育園,桜区 白鍬511,園内,35.884807,139.603948,
新開自転車保管所,桜区 新開4-2-21,事務室,35.846033,139.618457,
神田放課後児童クラブ,桜区 神田541-1,クラブ室内,35.8749281,139.6068702,
動物愛護ふれあいセンター,桜区 神田950-1,１階ホール,35.858239,139.605358,
療育センターさくら草,桜区 田島2-16-2,３階給湯室,35.8430646871146,139.63135905116,
西浦和放課後児童クラブ,桜区 田島2-16-7,クラブ室内,35.8434188119958,139.631215811238,
田島保育園,桜区 田島2-16-7,園内,35.8434562,139.6314637,
西浦和駅市民の窓口,桜区 田島5-9-15,市民の窓口内,35.843783,139.627384,
田島放課後児童クラブ,桜区 田島10-7-14,クラブ室内,35.8389981,139.6233547,
田島第二放課後児童クラブ（田島げんきっ子）,桜区 田島10-12-1 田島小学校内,クラブ室内,35.8377787310444,139.623292958892,
プラザウエスト,桜区 道場4-3-1,１階トイレ（レストラン側）,35.8559135539919,139.6101942638,
記念総合体育館,桜区 道場4-3-1,サブアリーナ,35.8554458957077,139.609198430713,
桜区役所,桜区 道場4-3-1,１階総合案内,35.8562779930346,139.610237817783,
中島放課後児童クラブ,桜区 中島1-28-1,クラブ室内,35.8648519,139.6233676,
土合支所,桜区 西堀4-2-35,支所内,35.85179,139.627784,
土合放課後児童クラブ,桜区 南元宿1-11-1,クラブ室内,35.8589567069377,139.626451096514,
領家保育園,浦和区 領家7-14-16,園内,35.8823576588708,139.648947723885,
大原サッカー場,浦和区 大原3-4-102,２階サポーターズカフェ,35.89508,139.646775,
与野駅市民の窓口,浦和区 上木崎2-2-2,市民の窓口内,35.885782,139.639783,
上木崎放課後児童クラブ,浦和区 上木崎3-11-33,クラブ室内,35.8886409,139.6446804,
子ども家庭総合センター(あいぱれっと),浦和区 上木崎4-4-10,３階トイレ（エレベーターホール側）,35.8856320823894,139.644128162785,
子ども家庭総合センター（あいぱれっと）,浦和区 上木崎4-4-10,事務室,35.8856320823894,139.644128162785,
あいぱれっと,浦和区 上木崎4-4-10,正面入口(屋外24時間),35.8856320823894,139.644128162785,
高砂放課後児童クラブ,浦和区 岸町4-1-29,クラブ室内,35.8565402,139.6567957,
高砂第１自転車駐車場,浦和区 岸町4-213-10,事務室,35.856112,139.658679,
岸町小放課後子ども居場所事業専用室,浦和区 岸町5-20-4,クラブ室内,35.851378,139.6508584,
岸町保育園,浦和区 岸町6-5-12,園内,35.8537244,139.6516905,
北浦和放課後児童クラブ,浦和区 北浦和2-18-3,クラブ室内,35.8771269,139.6491285,
北浦和駅市民の窓口,浦和区 北浦和3-3-1,市民の窓口内,35.872566,139.645951,
北浦和自転車駐車場,浦和区 北浦和5-2-1,事務室,35.874104,139.643437,
駒場保育園,浦和区 駒場1-27-7,園内,35.8721095,139.6602933,
駒場運動公園（スタジアム）,浦和区 駒場2-1-1,バックスタンド１３ゲートトイレ付近,35.8716381386063,139.665776560405,
駒場運動公園,浦和区 駒場2-1-1,補助競技場(屋外開庁時),35.8705631299599,139.66437329871,
浦和駒場体育館,浦和区 駒場2-5-6,１階通路（競技場Ｂ）,35.8726254130937,139.661923894533,
大東保育園,浦和区 大東2-18-7,園内,35.882009,139.662588,
大東放課後児童クラブ,浦和区 大東3-14-1,クラブ室内,35.8834452,139.6643849,
子育て支援センターうらわ,浦和区 高砂1-2-1 ｴｲﾍﾟｯｸｽﾀﾜｰ浦和・ｵﾌｨｽ東館3階,出入口玄関,35.856871,139.657431,
浦和駅市民の窓口,浦和区 高砂1-16-12,市民の窓口内,35.85941,139.657017,
高砂第２自転車駐車場,浦和区 高砂1-189-1,事務室,35.857439,139.6583,
浦和区役所,浦和区 常盤6-4-4,１階東トイレ,35.861648,139.645496,
さいたま市役所,浦和区 常盤6-4-4,地下１階警備員室,35.8614521178104,139.645324094168,
さいたま市役所（議会棟）,浦和区 常盤6-4-4,３階議会図書室付近,35.861648,139.645496,
さいたま市役所第２別館,浦和区 常盤6-4-4,１階西側トイレ,35.8614521178104,139.645324094168,
浦和区保健センター,浦和区 常盤6-4-18,１階トイレ,35.861319825021,139.644191068666,
ときわ会館,浦和区 常盤6-4-21,１階事務室,35.8616559330084,139.644123357095,
仲町第二放課後児童クラブ（なかちょう子供の家楽育）,浦和区 常盤8-18-4　仲町小学校内,クラブ室内,35.8640208444193,139.640549297352,
常盤保育園,浦和区 常盤9-3-16,園内,35.8671279,139.6468403,
浦和北公園,浦和区 常盤9-30,管理棟（楷楓亭）,35.86900254,139.64355661,
恭慶館,浦和区 常盤9-30-5,玄関（施設内）,35.869428,139.644553,
常盤小学校放課後子ども居場所事業,浦和区 常盤9-30-9,専用室内,35.8689472,139.644761,
浦和ふれあい館,浦和区 常盤9-30-22,１階正面玄関,35.871149,139.642801,
浦和中央保育園,浦和区 仲町2-13-7,園内,35.8585946,139.6518365,
仲町放課後児童クラブ,浦和区 仲町4-7-6,クラブ室内,35.8601784,139.6451647,
針ケ谷保育園,浦和区 針ヶ谷1-4-3,園内,35.8797377,139.6420802,
常盤北保育園,浦和区 針ヶ谷4-1-1,園内,35.8775811,139.6408305,
常盤北放課後児童クラブ（常盤北児童クラブ）,浦和区 針ヶ谷4-2-12　常盤北小学校内,クラブ室内,35.8791255459434,139.639595591061,
市営浦和駅東口駐車場,浦和区 東高砂町11-1,地下１階広場下管理室,35.8591890764406,139.658880180516,
浦和コミュニティセンター,浦和区 東高砂町11-1,10階南側トイレ,35.8586004767351,139.659119387246,
市民活動サポートセンター,浦和区 東高砂町11-1,トイレ付近（青のエレベーター側）,35.8586004767351,139.659119387246,
市民活動サポートセンター,浦和区 東高砂町11-1,トイレ付近（緑のエレベーター側）,35.858694,139.659134,
浦和駅周辺まちづくり事務所,浦和区 東高砂町25-2,事務所内,35.8586871294013,139.661527395957,
老人福祉センター仲本荘,浦和区 東仲町28-15,１階ホール,35.860754,139.660064,
東仲町保育園,浦和区 東仲町28-16,園内,35.8606002,139.6600946,
仲本放課後児童クラブ（仲本キッズ・ハウス）,浦和区 本太2-12-2,クラブ室内,35.860504,139.661483,
本太保育園,浦和区 本太4-3-15,園内,35.8667887,139.6575734,
本太放課後児童クラブ,浦和区 本太4-3-39,クラブ室内,35.8656386,139.6568972,
浦和総合運動場,浦和区 元町1-29-10,事務所,35.8692659673172,139.657986938559,
浦和総合運動場,浦和区 元町1-29-10,南側テニスコート(屋外開庁時),35.8692757417747,139.656414806374,
さくら草学園,浦和区 領家1-5-16,１階職員室,35.874636,139.658241,
木崎放課後児童クラブ,浦和区 領家4-20-1,クラブ室内,35.8824363,139.6536774,
針ヶ谷小学校放課後子ども居場所事業,浦和区 領家7-2-19,専用室内,35.8811049,139.6500344,
大谷口放課後児童クラブ,南区 大谷口993-16,クラブ室内,35.8602188,139.6811586,
大谷口保育園,南区 大谷口1089-1,園内,35.8614998,139.6770428,
向放課後児童クラブ（向ひまわり第１）,南区 大谷口5436-4,クラブ室内,35.858241,139.695927,
向第二放課後児童クラブ（向ひまわり第３）,南区 大谷口5437　向小学校内,クラブ室内,35.8580240372752,139.695620833799,
大谷場東小学校放課後子ども居場所事業,南区 大谷場2-13-54,専用室内,35.8534215,139.6742528,
南浦和コミュニティセンター,南区 大谷場2-6-25,１階体育館入口,35.854538,139.67218,
浦和大里放課後児童クラブ,南区 鹿手袋4-1-12,クラブ室内,35.8488632981365,139.642117031362,
武蔵浦和保育園,南区 鹿手袋4-1-12,園内,35.8487029,139.6421426,
白幡保育園,南区 白幡3-1-2,園内,35.8448493,139.6554829,
谷田支所,南区 太田窪1277-1,支所内,35.859815,139.675915,
善前放課後児童クラブ,南区 太田窪2500-1,クラブ室内,35.8540178,139.6871988,
善前第二放課後児童クラブ（善前きんせんか）,南区 太田窪2500-1　善前小学校内,クラブ室内,35.8540178,139.6871988,
谷田放課後児童クラブ,南区 太田窪5-10-6,クラブ室内,35.8563425,139.6779167,
辻保育園,南区 辻3-10-15,園内,35.8393229,139.6573881,
辻放課後児童クラブ,南区 辻6-3-28　辻小学校内,クラブ室内,35.8337267950217,139.658595292247,
辻南放課後児童クラブ（辻南小児童クラブ）,南区 辻8-7-32 辻南小学校内,クラブ室内,35.831598,139.665727,
武蔵浦和駅南自転車駐車場,南区 沼影1-105-1,事務室(１階北),35.844223,139.646997,
文化センター,南区 根岸1-7-1,１階トイレ（大ホール付近）,35.8437372604244,139.663511309593,
文化センター,南区 根岸1-7-1,１階案内所,35.843456,139.6635671,
南浦和保育園,南区 根岸2-19-3,園内,35.8400479,139.6652486,
文蔵保育園,南区 文蔵3-7-14,園内,35.8400475,139.6756052,
文蔵放課後児童クラブ,南区 文蔵4-19-3,クラブ室内,35.8379403993519,139.669227723929,
文蔵児童センタ－,南区 文蔵4-19-3,センター内,35.83801,139.669755,
浦和別所放課後児童クラブ,南区 別所2-15-6,クラブ室内,35.851409239251,139.646008433777,
浦和別所児童センター,南区 別所2-15-6,センター内,35.851409239251,139.646008433777,
別所沼公園,南区 別所4-12-10,事務所,35.855257,139.640263,
別所沼公園,南区 別所4-12-10,東側広場公衆トイレ(屋外開庁時),35.857667439646,139.6417723879,
子育て支援センターみなみ,南区 別所7-20-1　サウスピア１階,１階事務室,35.845312,139.645361,
サウスピア,南区 別所7-20-1,１階入口(屋外24時間),35.8452852041014,139.645331363996,
サウスピア(南区役所),南区 別所7-20-1,３階正面入口(屋外24時間),35.8452664386964,139.645334052201,
南区役所,南区 別所7-20-1,４階トイレ,35.8452613422216,139.645435439204,
老人福祉センター武蔵浦和荘,南区 別所7-20-1,７階エレベーターホール,35.845312,139.645361,
武蔵浦和コミュニティセンター,南区 別所7-20-1,８階エレベーターホール,35.845312,139.645361,
武蔵浦和コミュニティセンター,南区 別所7-20-1,９階トイレ,35.8452664386964,139.645334052201,
武蔵浦和駅西自転車等駐車場,南区 別所7-21-1,１階駐車場通路,35.846141,139.645746,
武蔵浦和駅東口地下自転車駐車場,南区 別所7-1535,地下１階事務室,35.846101,139.647221,
曲本保育園,南区 曲本4-5-7,園内,35.838065,139.642113,
沼影放課後児童クラブ,南区 曲本4-7-6,クラブ室内,35.8378645,139.6403744,
大谷場放課後児童クラブ,南区 南浦和1-18-3,クラブ室内,35.8527792,139.6679633,
さいたま市若者自立支援ルーム南浦和,南区 南浦和2-27-16,事務室,35.8490146758872,139.670289730492,
さいたま市若者自立支援ルーム南浦和,南区 南浦和2-27-16,３階トイレ,35.8491105531263,139.67026080671,
南浦和駅市民の窓口,南区 南浦和2-37-1,市民の窓口内,35.846936,139.669363,
大谷場保育園,南区 南浦和3-36-11,園内,35.8463121,139.6742633,
南浦和放課後児童クラブ,南区 南本町1-18-13,クラブ室内,35.8442508,139.6655522,
野田放課後児童クラブ,緑区 上野田16,クラブ室内,35.9002313,139.7039468,
大崎むつみの里,緑区 大崎37-1,１階玄関ロビー,35.8828830324932,139.715667083136,
東部清掃事務所,緑区 大崎317,１階玄関ホール,35.880163,139.712703,
クリーンセンター大崎,緑区 大崎317,１階玄関ホール,35.880163,139.712703,
見沼ヘルシーランド,緑区 大崎322-1,１階廊下,35.8829269391486,139.712585084603,
農業者トレーニングセンター,緑区 大崎3156-1,事務所,35.884024,139.713019,
大崎公園（子供動物園）,緑区 大崎3170-1,子供動物園内,35.884165,139.714057,
道祖土小学校放課後子ども居場所事業,緑区 道祖土1-1-1,専用室内,35.8747684,139.6694647,
大門放課後児童クラブ,緑区 大門1361-13,クラブ室内,35.8821515,139.7333349,
浦和東部まちづくり事務所,緑区 大門2564-6,事務所内,35.8891449521968,139.724267469054,
中尾小学校放課後子ども居場所事業,緑区 中尾40-1,専用室内,35.8689033685866,139.682154081167,
緑区役所,緑区 中尾975-1,１階トイレ,35.8711981396991,139.684306628802,
年輪荘,緑区 中尾1404,１階玄関ホール,35.873594,139.686058,
尾間木保育園,緑区 中尾1432-5,園内,35.8733279,139.6860998,
プラザイースト,緑区 中尾1440-8,事務室,35.8718606019183,139.685781459354,
青山苑管理事務所,緑区 中野田1030,事務棟１階トイレ,35.899706,139.711999,
さぎ山記念公園,緑区 南部領辻359-1,正面玄関内,35.906551,139.700595,
グリーンヒルうらわ,緑区 馬場1-7-1,１階事務室,35.8910049887598,139.680958291991,
原山保育園,緑区 原山1-7-2,園内,35.8694891,139.6720253,
原山放課後児童クラブ,緑区 原山1-22-20,クラブ室内,35.8678076,139.6737952,
原山市民の窓口,緑区 原山2-33-7,市民の窓口内,35.8723455156079,139.668353028793,
駒場運動公園（原山市民プール）,緑区 原山2-33-7,医務室,35.8719480518108,139.668243561361,
東浦和駅市民の窓口,緑区 東浦和4-1-16,市民の窓口内,35.866254,139.703443,
大牧放課後児童クラブ,緑区 東浦和6-13-15,クラブ室内,35.8728879,139.7062927,
子育て支援センターみどり,緑区 東浦和7-20-4,事務室,35.87131978,139.70507615,
尾間木小学校放課後子ども居場所事業,緑区 東浦和8‐11‐5 尾間木小学校内,専用室内,35.869114,139.696674,
東浦和まちづくり事務所,緑区 東浦和8-19-1,事務所内,35.8675919944479,139.695278972105,
三室放課後児童クラブ,緑区 松木1-4-11,クラブ室内,35.8842246,139.6847253,
うらわフェニックス,緑区 間宮741-1,管理棟玄関,35.88526,139.71928,
三浦運動公園（サッカー場）,緑区 三浦6836-1,管理棟(施設内）,35.897824,139.664354,
美園北放課後児童クラブ,緑区 美園2-12-11 美園北小学校内,クラブ室内,35.900659,139.722946,
美園コミュニティセンター,緑区 美園4-19-1,１階ホール,35.89497,139.72739,
美園放課後児童クラブ,緑区 美園5-33 美園小学校内,クラブ室内,35.890721,139.73499,
山崎市民の窓口,緑区 三室223-8,市民の窓口内,35.889809,139.667601,
三室保育園,緑区 三室1629-6,園内,35.8826603,139.6787069,
三室支所,緑区 三室1946-5,支所内,35.883143,139.681575,
高等看護学院学生宿舎,緑区 三室2423-12,１階玄関ホール,35.891303,139.675353,
老人福祉センター和楽荘,緑区 三室2458,玄関横談話コーナー,35.890089,139.677542,
高等看護学院,緑区 三室2460,３階トイレ,35.8917635868473,139.67846520653,
城北放課後児童クラブ,岩槻区 岩槻6619,クラブ室内,35.9620993,139.6933735,
上里小学校放課後子ども居場所事業,岩槻区 上里2-2,専用室内,35.9649266,139.7043168,
市民会館いわつき,岩槻区 太田3-1-1,事務室,35.9509842427281,139.709099007461,
岩槻城址公園,岩槻区 太田3-4,管理事務所,35.951527,139.711467,
岩槻城址公園,岩槻区 太田3-4,第３駐車場前多機能トイレ(屋外開庁時),35.9527454018444,139.711148880835,
岩槻城址公園,岩槻区 太田3-4,野球場,35.9505136968352,139.709915587331,
岩槻城址公園,岩槻区 太田3-4,第２駐車場公衆トイレ(屋外開庁時),35.9511690240843,139.707794858672,
川通放課後児童クラブ（川通）,岩槻区 大野島485-3,クラブ室内,35.941114,139.731231,
新和小放課後子ども居場所事業専用室,岩槻区 尾ヶ崎1252,クラブ室内,35.9105858,139.7324384,
柏崎放課後児童クラブ,岩槻区 柏崎762,クラブ室内,35.9337231,139.7014645,
第１やまぶき,岩槻区 古ヶ場2-1-11,１階廊下,35.9787,139.693089,
槻の木,岩槻区 黒谷1135-2,１階風除室,35.927806,139.719758,
第２やまぶき,岩槻区 黒谷1282-1,１階玄関ロビー,35.927842,139.718914,
和土放課後児童クラブ,岩槻区 黒谷1353,クラブ室内,35.9261999,139.7206831,
老人福祉センター槻寿苑,岩槻区 笹久保1393,１階ホール,35.918468,139.712973,
老人福祉センター槻寿苑（旧 槻寿苑デイサービスセンター）,岩槻区 笹久保1393,デイルーム内（１F）,35.918632,139.713226,
慈恩寺放課後児童クラブ,岩槻区 慈恩寺259,クラブ室内,35.9816894,139.7077972,
諏訪保育園,岩槻区 諏訪2-5-1,園内,35.9691143,139.7090236,
東岩槻放課後児童クラブ,岩槻区 諏訪2-6-1,クラブ室内,35.9701507,139.7097618,
岩槻諏訪公園,岩槻区 諏訪4-4,多機能トイレ前(屋外24時間),35.9682938115246,139.705351295998,
徳力放課後児童クラブ,岩槻区 徳力136-4,クラブ室内,35.9741002,139.71679,
太田放課後児童クラブ,岩槻区 仲町1-17-3,クラブ室内,35.9483186,139.7038133,
川通公園,岩槻区 長宮825-5,球場正面玄関(施設内),35.95226,139.728309,
川通公園,岩槻区 長宮825-5,球場1塁側トイレ(屋外開庁時),35.9518537110515,139.727653085653,
川通公園,岩槻区 長宮825-5,球場3塁側トイレ(屋外開庁時),35.9522006936168,139.72849897289,
西町保育園,岩槻区 西町3-1-24,園内,35.9531017,139.6865264,
西原放課後児童クラブ,岩槻区 西原4-97,クラブ室内,35.9520932,139.68543,
ふれあいプラザいわつき,岩槻区 東岩槻6-6,１階西側トイレ,35.9624537362083,139.716483312297,
河合放課後児童クラブ（河合小児童クラブ）,岩槻区 平林寺371-4,クラブ室内,35.967769,139.671926,
府内市民の窓口,岩槻区 府内1-8-1,市民の窓口内,35.943826,139.710875,
療育センターひなぎく,岩槻区 府内1-8-1,受付,35.9437985409608,139.710961389917,
コミュニティセンターいわつき,岩槻区 本町1-10-7,１階階段横,35.9474686693978,139.691824072786,
岩槻児童センター,岩槻区 本町1-11-11,センター内,35.946719,139.691866,
岩槻本町保育園,岩槻区 本町2-5-5,園内,35.9441537,139.6935401,
岩槻駅東口コミュニティセンター,岩槻区 本町3-1-1,３階トイレ,35.9512974405335,139.693806326755,
子育て支援センターいわつき,岩槻区 本町3-1-1 WATSU西館４階,事務室,35.950357,139.693866,
岩槻区役所,岩槻区 本町3-2-5,３階トイレ,35.9500104393955,139.694155923456,
岩槻駅東口公共駐車場,岩槻区 本町3-2-5,５階南側出入口,35.9504211570162,139.694730051456,
岩槻放課後児童クラブ,岩槻区 本町5-6-45,クラブ室内,35.9536949,139.6985366,
岩槻人形博物館,岩槻区 本町6-1-1,ロッカー室,35.950849,139.700082,
にぎわい交流館いわつき,岩槻区 本町6-1-2,１階受付,35.950849,139.700082,
岩槻温水プール,岩槻区 本丸3-17-2,監視室,35.9542876524864,139.705419938118,
城南放課後児童クラブ,岩槻区 南下新井1191-1,クラブ室内,35.9359332,139.712631,
美幸保育園,岩槻区 美幸町3-18,園内,35.9602155,139.6909925,
岩槻文化公園,岩槻区 村国229,テニス管理棟内,35.944539,139.721724,
新治ファミリーランド,市外 群馬県利根郡みなかみ町相俣159-1,温泉棟,36.720104,138.896853,
ホテル南郷,市外 福島県南会津郡南会津町界454,１階ロビー,37.267356,139.541422,
さいたま市立指扇小学校,西区 西大宮1丁目49-6,保健室,35.922451,139.573044,
さいたま市立馬宮東小学校,西区 西遊馬189-1,職員玄関,35.904213,139.571411,
さいたま市立馬宮西小学校,西区 飯田新田189-2,保健室,35.885693,139.559006,
さいたま市立植水小学校,西区 中野林225-1,職員玄関,35.894073,139.594513,
さいたま市立大宮西小学校,西区 三橋5丁目1359,職員玄関,35.904217,139.590866,
さいたま市立栄小学校,西区 飯田811,職員玄関,35.907173,139.582565,
さいたま市立宮前小学校,西区 宮前町341,保健室前廊下,35.924,139.595184,
さいたま市立指扇北小学校,西区 中釘1506-1,職員玄関,35.932861,139.57132,
さいたま市立指扇中学校,西区 西大宮3丁目31-1,職員室,35.927486,139.576675,
さいたま市立指扇中学校,西区 西大宮3丁目31-1,正門付近,35.927486,139.576675,
さいたま市立馬宮中学校,西区 二ツ宮589-1,保健室前廊下,35.89872,139.579361,
さいたま市立馬宮中学校,西区 二ツ宮589-1,正門付近,35.89872,139.579361,
さいたま市立大宮西中学校,西区 三橋6丁目1558,保健室前廊下,35.919586,139.589874,
さいたま市立大宮西中学校,西区 三橋6丁目1558,正門付近,35.919586,139.589874,
さいたま市立宮前中学校,西区 宮前町1467-1,職員玄関前廊下,35.929565,139.59819,
さいたま市立宮前中学校,西区 宮前町1467-1,正門付近,35.929565,139.59819,
さいたま市立植水中学校,西区 三条町345-1,Ａ棟１階階段下,35.886765,139.58371,
さいたま市立植水中学校,西区 三条町345-1,正門付近,35.886765,139.58371,
さいたま市立土屋中学校,西区 土屋1766-1,保健室前廊下,35.911091,139.571518,
さいたま市立土屋中学校,西区 土屋1766-1,正門付近,35.911091,139.571518,
さいたま市立ひまわり特別支援学校,西区 三橋6丁目1587,保健室前廊下,35.920925,139.590118,
さいたま市立東大成小学校,北区 東大成町2丁目12,保健室前廊下,35.925369,139.618286,
さいたま市立日進小学校,北区 日進町2丁目911,保健室,35.924988,139.607635,
さいたま市立日進北小学校,北区 日進町3丁目178,保健室前廊下,35.936733,139.603821,
さいたま市立宮原小学校,北区 宮原町4丁目102-6,保健室前廊下,35.948902,139.606812,
さいたま市立植竹小学校,北区 植竹町2丁目1,保健室,35.929649,139.626343,
さいたま市立大砂土小学校,北区 本郷町1,職員室,35.937225,139.627441,
さいたま市立大宮別所小学校,北区 別所町42-1,北校舎昇降口,35.954964,139.597519,
さいたま市立泰平小学校,北区 今羽町628,保健室前廊下,35.949554,139.62648,
さいたま市立つばさ小学校,北区 宮原町3丁目902-4,昇降口,35.933681,139.610916,
さいたま市立日進中学校,北区 櫛引町2丁目503-1,職員玄関,35.922535,139.609924,
さいたま市立日進中学校,北区 櫛引町2丁目503-1,正門付近,35.922535,139.609924,
さいたま市立宮原中学校,北区 宮原町4丁目129,保健室前廊下,35.951778,139.605118,
さいたま市立宮原中学校,北区 宮原町4丁目129,正門付近,35.951778,139.605118,
さいたま市立植竹中学校,北区 土呂町352,職員室入口,35.933815,139.627335,
さいたま市立植竹中学校,北区 土呂町352,正門付近,35.933815,139.627335,
さいたま市立泰平中学校,北区 本郷町1991,職員玄関,35.948788,139.627396,
さいたま市立泰平中学校,北区 本郷町1991,正門付近,35.948788,139.627396,
さいたま市立土呂中学校,北区 見沼3丁目75,職員玄関,35.938663,139.637772,
さいたま市立土呂中学校,北区 見沼3丁目75,正門付近,35.938663,139.637772,
さいたま市立大宮北高等学校,北区 奈良町91-1,体育館,35.945126,139.600967,
さいたま市立大宮小学校,大宮区 大門町3丁目3,職員室,35.906647,139.629776,
さいたま市立大宮東小学校,大宮区 堀の内町3丁目145,職員室前廊下,35.913998,139.635788,
さいたま市立大宮南小学校,大宮区 吉敷町3丁目87,職員室前廊下,35.900581,139.633881,
さいたま市立大宮北小学校,大宮区 宮町3丁目84,保健室前廊下,35.911427,139.627853,
さいたま市立桜木小学校,大宮区 桜木町4丁目328-9,職員玄関,35.903103,139.617554,
さいたま市立三橋小学校,大宮区 三橋2丁目20,職員玄関,35.90353,139.604828,
さいたま市立大成小学校,大宮区 大成町2丁目282,職員玄関,35.914425,139.614151,
さいたま市立芝川小学校,大宮区 天沼町2丁目1077,保健室,35.904934,139.645523,
さいたま市立上小小学校,大宮区 上小町1337-1,保健室前廊下,35.896652,139.616928,
さいたま市立大宮東中学校,大宮区 堀の内町1丁目99,事務室前,35.908325,139.635559,
さいたま市立大宮東中学校,大宮区 堀の内町1丁目99,正門付近,35.908325,139.635559,
さいたま市立大宮南中学校,大宮区 天沼町2丁目362,保健室前廊下,35.899437,139.638,
さいたま市立大宮南中学校,大宮区 天沼町2丁目362,正門付近,35.899437,139.638,
さいたま市立大宮北中学校,大宮区 寿能町1丁目21,職員玄関,35.921692,139.632248,
さいたま市立大宮北中学校,大宮区 寿能町1丁目21,正門付近,35.921692,139.632248,
さいたま市立桜木中学校,大宮区 桜木町4丁目219,保健室,35.9048,139.61702,
さいたま市立桜木中学校,大宮区 桜木町4丁目219,正門付近,35.9048,139.61702,
さいたま市立三橋中学校,大宮区 三橋1丁目1300,職員室前廊下,35.904564,139.602814,
さいたま市立三橋中学校,大宮区 三橋1丁目1300,正門付近,35.904564,139.602814,
さいたま市立大成中学校,大宮区 大成町2丁目379,職員室から保健室間の廊下,35.913097,139.612473,
さいたま市立大成中学校,大宮区 大成町2丁目379,正門付近,35.913097,139.612473,
さいたま市立第二東中学校,大宮区 天沼町1丁目760,職員玄関,35.90921,139.645798,
さいたま市立第二東中学校,大宮区 天沼町1丁目760,正門付近,35.90921,139.645798,
さいたま市立大宮国際中等教育学校,大宮区 三橋4丁目96,職員室,35.895927,139.599442,
さいたま市立大砂土東小学校,見沼区 大和田町2丁目998,保健室前廊下,35.937214,139.646759,
さいたま市立見沼小学校,見沼区 東大宮2丁目45,保健室,35.948463,139.632706,
さいたま市立片柳小学校,見沼区 東新井244-1,職員玄関,35.910564,139.670761,
さいたま市立七里小学校,見沼区 東宮下312,保健室,35.929123,139.676407,
さいたま市立春岡小学校,見沼区 春岡2丁目29-1,職員玄関,35.949329,139.662079,
さいたま市立蓮沼小学校,見沼区 蓮沼1070,保健室前廊下,35.934086,139.660995,
さいたま市立大谷小学校,見沼区 大谷18,保健室前廊下,35.921005,139.666031,
さいたま市立島小学校,見沼区 島町533-2,保健室前廊下,35.94643,139.652176,
さいたま市立東宮下小学校,見沼区 東宮下215-1,職員玄関,35.925739,139.678101,
さいたま市立海老沼小学校,見沼区 東新井710-5,保健室,35.906288,139.659561,
さいたま市立春野小学校,見沼区 春野1丁目10-1,職員玄関,35.956509,139.667603,
さいたま市立大砂土中学校,見沼区 東大宮1丁目100-1,職員玄関,35.937534,139.644623,
さいたま市立大砂土中学校,見沼区 東大宮1丁目100-1,正門付近,35.937534,139.644623,
さいたま市立片柳中学校,見沼区 御蔵551,職員玄関,35.906712,139.673721,
さいたま市立片柳中学校,見沼区 御蔵551,正門付近,35.906712,139.673721,
さいたま市立春里中学校,見沼区 小深作268-19,職員室前廊下,35.940819,139.662506,
さいたま市立春里中学校,見沼区 小深作268-19,正門付近,35.940819,139.662506,
さいたま市立七里中学校,見沼区 東宮下1丁目1-1,保健室,35.927773,139.680756,
さいたま市立七里中学校,見沼区 東宮下1丁目1-1,正門付近,35.927773,139.680756,
さいたま市立大谷中学校,見沼区 大谷1634-2,職員玄関,35.925255,139.66745,
さいたま市立大谷中学校,見沼区 大谷1634-2,正門付近,35.925255,139.66745,
さいたま市立大宮八幡中学校,見沼区 南中丸357,職員玄関,35.918953,139.653427,
さいたま市立大宮八幡中学校,見沼区 南中丸357,正門付近,35.918953,139.653427,
さいたま市立春野中学校,見沼区 春野2丁目2-1,職員玄関,35.95631,139.663132,
さいたま市立春野中学校,見沼区 春野2丁目2-1,正門付近,35.95631,139.663132,
さいたま市立与野本町小学校,中央区 本町東3丁目5-23,保健室,35.883755,139.622345,
さいたま市立上落合小学校,中央区 上落合4丁目14-24,体育館,35.894215,139.625793,
さいたま市立大戸小学校,中央区 新中里1丁目6-28,保健室前廊下,35.872334,139.636566,
さいたま市立下落合小学校,中央区 上落合1丁目7-33,職員室前廊下,35.890156,139.631943,
さいたま市立与野西北小学校,中央区 円阿弥4丁目3-7,職員玄関,35.887268,139.608383,
さいたま市立鈴谷小学校,中央区 鈴谷5丁目1-1,保健室,35.870895,139.631546,
さいたま市立与野八幡小学校,中央区 本町東5丁目23-14,職員室前廊下,35.890572,139.62149,
さいたま市立与野南小学校,中央区 大戸6丁目2-25,職員玄関,35.8671,139.635483,
さいたま市立与野東中学校,中央区 下落合3丁目21-10,職員玄関,35.887363,139.632156,
さいたま市立与野東中学校,中央区 下落合3丁目21-10,正門付近,35.887363,139.632156,
さいたま市立与野西中学校,中央区 鈴谷8丁目10-33,仮設校舎１階,35.878342,139.624161,
さいたま市立与野西中学校,中央区 鈴谷8丁目10-33,正門付近,35.878342,139.624161,
さいたま市立与野南中学校,中央区 大戸2丁目6-25,保健室前廊下,35.86607,139.634491,
さいたま市立与野南中学校,中央区 大戸2丁目6-25,正門付近,35.86607,139.634491,
さいたま市立八王子中学校,中央区 八王子4丁目2-1,職員玄関,35.878239,139.60849,
さいたま市立八王子中学校,中央区 八王子4丁目2-1,正門付近,35.878239,139.60849,
さいたま市立土合小学校,桜区 西堀7丁目21-1,保健室,35.857269,139.627991,
さいたま市立大久保小学校,桜区 五関21,保健室,35.871731,139.598419,
さいたま市立栄和小学校,桜区 栄和1丁目7-1,保健室,35.860764,139.618423,
さいたま市立田島小学校,桜区 田島10丁目12-1,保健室,35.838146,139.623871,
さいたま市立大久保東小学校,桜区 大久保領家331,保健室前廊下,35.871292,139.603546,
さいたま市立新開小学校,桜区 新開2丁目18-1,保健室,35.850826,139.617401,
さいたま市立神田小学校,桜区 神田541-1,職員室前廊下,35.874935,139.607635,
さいたま市立中島小学校,桜区 中島1丁目28-1,保健室,35.86496,139.623123,
さいたま市立土合中学校,桜区 町谷1丁目19-1,職員玄関,35.859814,139.623749,
さいたま市立土合中学校,桜区 町谷1丁目19-1,正門付近,35.859814,139.623749,
さいたま市立大久保中学校,桜区 五関282,職員室前廊下,35.867222,139.598022,
さいたま市立大久保中学校,桜区 五関282,正門付近,35.867222,139.598022,
さいたま市立田島中学校,桜区 田島10丁目13-1,保健室,35.839283,139.62294,
さいたま市立田島中学校,桜区 田島10丁目13-1,正門付近,35.839283,139.62294,
さいたま市立上大久保中学校,桜区 上大久保861-1,体育館,35.872456,139.615952,
さいたま市立上大久保中学校,桜区 上大久保861-1,正門付近,35.872456,139.615952,
さいたま市立高砂小学校,浦和区 岸町4丁目1-29,保健室,35.856712,139.656754,
さいたま市立常盤小学校,浦和区 常盤9丁目30-9,保健室,35.868248,139.64325,
さいたま市立木崎小学校,浦和区 領家4丁目19-4,保健室前廊下,35.882607,139.65181,
さいたま市立仲本小学校,浦和区 本太2丁目12-31,保健室,35.861614,139.661728,
さいたま市立本太小学校,浦和区 本太2丁目26-25,職員玄関前,35.865162,139.658234,
さいたま市立北浦和小学校,浦和区 北浦和2丁目18-3,保健室,35.876484,139.648102,
さいたま市立仲町小学校,浦和区 常盤8丁目18-4,保健室,35.863075,139.640915,
さいたま市立上木崎小学校,浦和区 上木崎3丁目4-3,保健室前廊下,35.887302,139.641754,
さいたま市立岸町小学校,浦和区 岸町5丁目20-4,職員玄関,35.85043,139.650452,
さいたま市立針ヶ谷小学校,浦和区 領家7丁目2-1,職員玄関前入口,35.882111,139.648254,
さいたま市立大東小学校,浦和区 大東3丁目14-1,職員室,35.882511,139.664276,
さいたま市立常盤北小学校,浦和区 針ヶ谷4丁目2-12,保健室,35.880749,139.639191,
さいたま市立常盤中学校,浦和区 針ヶ谷4丁目1-9,事務室前廊下,35.877274,139.640579,
さいたま市立常盤中学校,浦和区 針ヶ谷4丁目1-9,正門付近,35.877274,139.640579,
さいたま市立木崎中学校,浦和区 瀬ヶ崎2丁目17-1,保健室前廊下,35.878555,139.660416,
さいたま市立木崎中学校,浦和区 瀬ヶ崎2丁目17-1,正門付近,35.878555,139.660416,
さいたま市立本太中学校,浦和区 領家1丁目4-15,職員玄関,35.873505,139.659561,
さいたま市立本太中学校,浦和区 領家1丁目4-15,正門付近,35.873505,139.659561,
さいたま市立大原中学校,浦和区 大原3丁目1-11,保健室前廊下,35.892303,139.648285,
さいたま市立大原中学校,浦和区 大原3丁目1-11,正門付近,35.892303,139.648285,
さいたま市立浦和中学校,浦和区 元町1丁目28-17,エントランス,35.871677,139.656754,
さいたま市立浦和中学校,浦和区 元町1丁目28-17,正門付近,35.871677,139.656754,
さいたま市立浦和高等学校,浦和区 元町1丁目28-17,職員玄関,35.871677,139.656754,
さいたま市立谷田小学校,南区 太田窪5丁目10-6,保健室,35.856323,139.67868,
さいたま市立南浦和小学校,南区 白幡1丁目1-20,保健室,35.846046,139.657593,
さいたま市立浦和別所小学校,南区 別所2丁目5-34,保健室,35.849869,139.647766,
さいたま市立大谷場小学校,南区 南浦和1丁目18-3,保健室,35.853333,139.668045,
さいたま市立大谷場東小学校,南区 大谷場2丁目13-54,保健室,35.852928,139.674103,
さいたま市立西浦和小学校,南区 曲本1丁目3-5,保健室,35.83876,139.630081,
さいたま市立辻小学校,南区 辻6丁目3-28,職員室横,35.833527,139.65892,
さいたま市立文蔵小学校,南区 文蔵5丁目16-29,職員室,35.83527,139.673187,
さいたま市立沼影小学校,南区 沼影2丁目8-36,保健室,35.838768,139.645538,
さいたま市立大谷口小学校,南区 広ヶ谷戸24,保健室,35.862751,139.683517,
さいたま市立浦和大里小学校,南区 別所7丁目14-28,職員室前廊下,35.844604,139.643051,
さいたま市立善前小学校,南区 太田窪2500-1,保健室前階段,35.853909,139.686295,
さいたま市立向小学校,南区 大谷口5437,保健室,35.857773,139.696136,
さいたま市立辻南小学校,南区 辻8丁目7-32,保健室,35.832092,139.665375,
さいたま市立岸中学校,南区 南本町2丁目25-27,保健室前廊下,35.850685,139.665115,
さいたま市立岸中学校,南区 南本町2丁目25-27,正門付近,35.850685,139.665115,
さいたま市立南浦和中学校,南区 辻6丁目1-33,職員玄関,35.8353,139.657593,
さいたま市立南浦和中学校,南区 辻6丁目1-33,正門付近,35.8353,139.657593,
さいたま市立白幡中学校,南区 白幡2丁目18-13,職員玄関入口,35.848907,139.652557,
さいたま市立白幡中学校,南区 白幡2丁目18-13,正門付近,35.848907,139.652557,
さいたま市立大谷場中学校,南区 大谷場2丁目13-54,職員室前廊下,35.852928,139.674103,
さいたま市立大谷場中学校,南区 大谷場2丁目13-54,正門付近,35.852928,139.674103,
さいたま市立大谷口中学校,南区 広ヶ谷戸21,職員玄関,35.862751,139.683517,
さいたま市立大谷口中学校,南区 広ヶ谷戸21,正門付近,35.862751,139.683517,
さいたま市立内谷中学校,南区 内谷6丁目10-1,職員室前廊下,35.836079,139.64769,
さいたま市立内谷中学校,南区 内谷6丁目10-1,正門付近,35.836079,139.64769,
さいたま市立浦和南高等学校,南区 辻6丁目5-31,保健室前,35.832825,139.656631,
さいたま市立三室小学校,緑区 三室1994,保健室前廊下,35.883602,139.681915,
さいたま市立尾間木小学校,緑区 東浦和8丁目11-5,保健室,35.868664,139.696899,
さいたま市立原山小学校,緑区 原山1丁目30-12,保健室前廊下,35.866371,139.669708,
さいたま市立大門小学校,緑区 大門1189,職員玄関,35.880684,139.733261,
さいたま市立野田小学校,緑区 上野田16,保健室,35.901207,139.703171,
さいたま市立道祖土小学校,緑区 道祖土1丁目1-1,職員玄関,35.875416,139.668045,
さいたま市立中尾小学校,緑区 中尾2596-1,職員室,35.868343,139.682648,
さいたま市立大牧小学校,緑区 東浦和6丁目12-3,保健室,35.872887,139.706863,
さいたま市立芝原小学校,緑区 芝原2丁目5,保健室窓側,35.881706,139.691605,
さいたま市立美園小学校,緑区 美園5丁目33,職員玄関,35.890549,139.735031,
さいたま市立美園北小学校,緑区 美園2丁目12-11,職員玄関,35.900673,139.723404,
さいたま市立原山中学校,緑区 太田窪1丁目10-22,職員玄関,35.86795,139.66713,
さいたま市立原山中学校,緑区 太田窪1丁目10-22,正門付近,35.86795,139.66713,
さいたま市立東浦和中学校,緑区 中尾1207-1,体育管理室,35.874668,139.68396,
さいたま市立東浦和中学校,緑区 中尾1207-1,正門付近,35.874668,139.68396,
さいたま市立美園中学校,緑区 大崎2550-3,職員玄関,35.892498,139.712601,
さいたま市立美園中学校,緑区 大崎2550-3,正門付近,35.892498,139.712601,
さいたま市立三室中学校,緑区 馬場1丁目38-2,職員玄関,35.887135,139.684219,
さいたま市立三室中学校,緑区 馬場1丁目38-2,正門付近,35.887135,139.684219,
さいたま市立尾間木中学校,緑区 東浦和4丁目29-1,職員玄関,35.869366,139.698456,
さいたま市立尾間木中学校,緑区 東浦和4丁目29-1,正門付近,35.869366,139.698456,
さいたま市立美園南中学校,緑区 美園6丁目15,職員室前廊下,35.885689,139.736267,
さいたま市立美園南中学校,緑区 美園6丁目15,正門付近,35.885689,139.736267,
さいたま市立さくら草特別支援学校,緑区 三室636-80,保健室前廊下,35.892044,139.673401,
さいたま市立岩槻小学校,岩槻区 本町5丁目6-45,職員玄関,35.952251,139.69928,
さいたま市立太田小学校,岩槻区 仲町1丁目17-3,保健室,35.948357,139.703598,
さいたま市立川通小学校,岩槻区 大野島422-1,職員室前廊下,35.941936,139.731674,
さいたま市立柏崎小学校,岩槻区 柏崎762,連絡通路,35.933502,139.701309,
さいたま市立和土小学校,岩槻区 黒谷1353,職員室,35.925728,139.720459,
さいたま市立新和小学校,岩槻区 尾ヶ崎1252,職員室前廊下,35.910622,139.733231,
さいたま市立慈恩寺小学校,岩槻区 慈恩寺259,職員室前廊下,35.980961,139.708237,
さいたま市立河合小学校,岩槻区 平林寺351,職員室,35.967049,139.671631,
さいたま市立東岩槻小学校,岩槻区 諏訪2丁目6-1,保健室前廊下,35.969917,139.709213,
さいたま市立城北小学校,岩槻区 岩槻6619,保健室,35.961689,139.693848,
さいたま市立徳力小学校,岩槻区 徳力136-4,保健室,35.973942,139.716553,
さいたま市立上里小学校,岩槻区 上里2丁目2,保健室前廊下,35.965263,139.704712,
さいたま市立西原小学校,岩槻区 西原6-25,保健室前廊下,35.952625,139.684021,
さいたま市立城南小学校,岩槻区 南下新井1191-1,職員室,35.935474,139.713043,
さいたま市立岩槻中学校,岩槻区 仲町1丁目14-35,昇降口,35.948498,139.703613,
さいたま市立岩槻中学校,岩槻区 仲町1丁目14-35,正門付近,35.948498,139.703613,
さいたま市立川通中学校,岩槻区 長宮435,職員室出入口横,35.947681,139.731949,
さいたま市立川通中学校,岩槻区 長宮435,正門付近,35.947681,139.731949,
さいたま市立城南中学校,岩槻区 笹久保577,来賓玄関,35.9146,139.726883,
さいたま市立城南中学校,岩槻区 笹久保577,正門付近,35.9146,139.726883,
さいたま市立慈恩寺中学校,岩槻区 裏慈恩寺505,第2会議室,35.985207,139.705505,
さいたま市立慈恩寺中学校,岩槻区 裏慈恩寺505,正門付近,35.985207,139.705505,
さいたま市立城北中学校,岩槻区 本宿392-1,保健室前廊下,35.965557,139.689545,
さいたま市立城北中学校,岩槻区 本宿392-1,正門付近,35.965557,139.689545,
さいたま市立桜山中学校,岩槻区 表慈恩寺684-1,職員室後方校庭へ出入口手前右,35.972321,139.710419,
さいたま市立桜山中学校,岩槻区 表慈恩寺684-1,正門付近,35.972321,139.710419,
さいたま市立柏陽中学校,岩槻区 真福寺454,職員下駄箱上,35.935406,139.703506,
さいたま市立柏陽中学校,岩槻区 真福寺454,正門付近,35.935406,139.703506,
さいたま市立西原中学校,岩槻区 岩槻3750,職員玄関,35.955357,139.681519,
さいたま市立西原中学校,岩槻区 岩槻3750,正門付近,35.955357,139.681519,
